[{"bookurData":"Abu Dhabi","wikiData":"Abu Dhabi","bookurDataId":"","wikiDataId":"59647637811c3f826c497435","wikiDataType":"page","source":"wikivoyage","countryCode":"AE","population":"603687","lat":"24.466667","lon":"54.366667","loc":{"continent":"Asia","country":"United Arab Emirates","countryCode":"AE","state":"Abu Dhabi","city":"","locality":"Abu Dhabi","colloquial_area":"","neighborhood":""}},{"bookurData":"Dubai","wikiData":"Dubai","bookurDataId":"","wikiDataId":"596476c2811c3f826c499571","wikiDataType":"page","source":"wikivoyage","countryCode":"AE","population":"1137376","lat":"25.258172","lon":"55.304717","loc":{"continent":"Asia","country":"United Arab Emirates","countryCode":"AE","state":"Dubai","city":"","locality":"Dubai","colloquial_area":"","neighborhood":"Al Hamriya"}},{"bookurData":"Sharjah","wikiData":"Sharjah","bookurDataId":"","wikiDataId":"596477e5811c3f826c49e2f0","wikiDataType":"page","source":"wikivoyage","countryCode":"AE","population":"543942","lat":"25.35731","lon":"55.403304","loc":{"continent":"Asia","country":"United Arab Emirates","countryCode":"AE","state":"Sharjah","city":"","locality":"Sharjah","colloquial_area":"","neighborhood":"Maysaloon"}},{"bookurData":"Kabul","wikiData":"Kabul","bookurDataId":"","wikiDataId":"59647716811c3f826c49ac24","wikiDataType":"page","source":"wikivoyage","countryCode":"AF","population":"3043589","lat":"34.516667","lon":"69.183333","loc":{"continent":"Asia","country":"Afghanistan","countryCode":"AF","state":"Kabul","city":"Kabul","locality":"Kabul","colloquial_area":"","neighborhood":""}},{"bookurData":"Qandahar","wikiData":"Kandahar","bookurDataId":"","wikiDataId":"5965b9e410456ad969224c58","wikiDataType":"page","source":"wikipedia","countryCode":"AF","population":"391230","lat":"31.613323","lon":"65.710126","loc":{"continent":"Asia","country":"Afghanistan","countryCode":"AF","state":"Kandahar","city":"Kandahar","locality":"Kandahar","colloquial_area":"","neighborhood":""}},{"bookurData":"Tirana","wikiData":"Tirana","bookurDataId":"","wikiDataId":"59647815811c3f826c49f00c","wikiDataType":"page","source":"wikivoyage","countryCode":"AL","population":"374801","lat":"41.3275","lon":"19.8188889","loc":{"continent":"Europe","country":"Albania","countryCode":"AL","state":"Tirana County","city":"Tirana","locality":"Tirana","colloquial_area":"","neighborhood":""}},{"bookurData":"Yerevan","wikiData":"Yerevan","bookurDataId":"","wikiDataId":"5964784c811c3f826c49fd91","wikiDataType":"page","source":"wikivoyage","countryCode":"AM","population":"1093499","lat":"40.1811111","lon":"44.5136111","loc":{"continent":"Asia","country":"Armenia","countryCode":"AM","state":"Yerevan","city":"","locality":"Yerevan","colloquial_area":"","neighborhood":""}},{"bookurData":"Luanda","wikiData":"Luanda","bookurDataId":"","wikiDataId":"59647745811c3f826c49b965","wikiDataType":"page","source":"wikivoyage","countryCode":"AO","population":"2776125","lat":"-8.836804","lon":"13.233174","loc":{"continent":"Africa","country":"Angola","countryCode":"AO","state":"Luanda Province","city":"Luanda","locality":"Luanda","colloquial_area":"","neighborhood":""}},{"bookurData":"Cordoba","wikiData":"Córdoba","bookurDataId":"","wikiDataId":"5965be4e10456ad96922ab9f","wikiDataType":"page","source":"wikivoyage","countryCode":"AR","population":"1441007","lat":"-31.413496","lon":"-64.181052","loc":{"continent":"South America","country":"Argentina","countryCode":"AR","state":"Cordoba","city":"Capital Department","locality":"Córdoba","colloquial_area":"","neighborhood":""}},{"bookurData":"Corrientes","wikiData":"Corrientes","bookurDataId":"","wikiDataId":"596476a8811c3f826c498f80","wikiDataType":"page","source":"wikivoyage","countryCode":"AR","population":"390481","lat":"-27.480596","lon":"-58.834099","loc":{"continent":"South America","country":"Argentina","countryCode":"AR","state":"Corrientes Province","city":"Capital Department","locality":"Corrientes","colloquial_area":"","neighborhood":""}},{"bookurData":"La Plata","wikiData":"La Plata","bookurDataId":"","wikiDataId":"59647735811c3f826c49b4d9","wikiDataType":"page","source":"wikivoyage","countryCode":"AR","population":"684318","lat":"-34.921454","lon":"-57.954533","loc":{"continent":"South America","country":"Argentina","countryCode":"AR","state":"Buenos Aires Province","city":"La Plata","locality":"La Plata","colloquial_area":"","neighborhood":""}},{"bookurData":"Mar Del Plata","wikiData":"Mar del Plata","bookurDataId":"","wikiDataId":"59647753811c3f826c49bc8e","wikiDataType":"page","source":"wikivoyage","countryCode":"AR","population":"645771","lat":"-38.002278","lon":"-57.557539","loc":{"continent":"South America","country":"Argentina","countryCode":"AR","state":"Buenos Aires Province","city":"General Pueyrredón Partido","locality":"Mar del Plata","colloquial_area":"","neighborhood":""}},{"bookurData":"Mendoza","wikiData":"Mendoza","bookurDataId":"","wikiDataId":"5964775b811c3f826c49bebc","wikiDataType":"page","source":"wikivoyage","countryCode":"AR","population":"973047","lat":"-32.890845","lon":"-68.827171","loc":{"continent":"South America","country":"Argentina","countryCode":"AR","state":"Mendoza Province","city":"Guaymallén Department","locality":"San José","colloquial_area":"","neighborhood":""}},{"bookurData":"Neuquen","wikiData":"Neuquen (region)","bookurDataId":"","wikiDataId":"59647779811c3f826c49c650","wikiDataType":"page","source":"wikivoyage","countryCode":"AR","population":"359037","lat":"-38.951606","lon":"-68.059102","loc":{"continent":"South America","country":"Argentina","countryCode":"AR","state":"Neuquen","city":"Confluencia Department","locality":"Neuquen","colloquial_area":"","neighborhood":""}},{"bookurData":"Posadas","wikiData":"Posadas","bookurDataId":"","wikiDataId":"596477af811c3f826c49d4a9","wikiDataType":"page","source":"wikivoyage","countryCode":"AR","population":"313438","lat":"-27.367077","lon":"-55.896078","loc":{"continent":"South America","country":"Argentina","countryCode":"AR","state":"Misiones Province","city":"Capital","locality":"Posadas","colloquial_area":"","neighborhood":""}},{"bookurData":"Resistencia","wikiData":"Resistencia","bookurDataId":"","wikiDataId":"596477c0811c3f826c49d8f0","wikiDataType":"page","source":"wikivoyage","countryCode":"AR","population":"406967","lat":"-27.46056","lon":"-58.983886","loc":{"continent":"South America","country":"Argentina","countryCode":"AR","state":"Chaco Province","city":"San Fernando Department","locality":"Resistencia","colloquial_area":"","neighborhood":""}},{"bookurData":"Rosario","wikiData":"Rosario","bookurDataId":"","wikiDataId":"596477c7811c3f826c49dad0","wikiDataType":"page","source":"wikivoyage","countryCode":"AR","population":"1218497","lat":"-32.946818","lon":"-60.639317","loc":{"continent":"South America","country":"Argentina","countryCode":"AR","state":"Santa Fe Province","city":"Rosario Department","locality":"Rosario","colloquial_area":"","neighborhood":"Centro"}},{"bookurData":"Salta","wikiData":"Salta","bookurDataId":"","wikiDataId":"596477cf811c3f826c49dd59","wikiDataType":"page","source":"wikivoyage","countryCode":"AR","population":"548288","lat":"-24.785896","lon":"-65.411664","loc":{"continent":"South America","country":"Argentina","countryCode":"AR","state":"Salta Province","city":"Capital Department","locality":"Salta","colloquial_area":"","neighborhood":""}},{"bookurData":"San Juan","wikiData":"San Juan","bookurDataId":"","wikiDataId":"596477d4811c3f826c49deba","wikiDataType":"page","source":"wikivoyage","countryCode":"AR","population":"469958","lat":"-31.5375","lon":"-68.536389","loc":{"continent":"South America","country":"Argentina","countryCode":"AR","state":"San Juan Province","city":"Capital Department","locality":"San Juan","colloquial_area":"","neighborhood":""}},{"bookurData":"Tucuman","wikiData":"Tucuman","bookurDataId":"","wikiDataId":"59647822811c3f826c49f2c2","wikiDataType":"page","source":"wikivoyage","countryCode":"AR","population":"828402","lat":"-26.824144","lon":"-65.2226","loc":{"continent":"South America","country":"Argentina","countryCode":"AR","state":"Tucumán","city":"Capital Department","locality":"San Miguel de Tucumán","colloquial_area":"","neighborhood":""}},{"bookurData":"Vienna","wikiData":"Vienna","bookurDataId":"","wikiDataId":"59647833811c3f826c49f692","wikiDataType":"page","source":"wikivoyage","countryCode":"AT","population":"1569315","lat":"48.2","lon":"16.366667","loc":{"continent":"Europe","country":"Austria","countryCode":"AT","state":"Vienna","city":"","locality":"Wien","colloquial_area":"","neighborhood":""}},{"bookurData":"Adelaide","wikiData":"Adelaide","bookurDataId":"","wikiDataId":"59647639811c3f826c497486","wikiDataType":"page","source":"wikivoyage","countryCode":"AU","population":"1074168","lat":"-34.928661","lon":"138.598633","loc":{"continent":"Oceania","country":"Australia","countryCode":"AU","state":"South Australia","city":"Adelaide City Council","locality":"Adelaide","colloquial_area":"Adelaide","neighborhood":""}},{"bookurData":"Brisbane","wikiData":"Brisbane","bookurDataId":"","wikiDataId":"59647678811c3f826c498352","wikiDataType":"page","source":"wikivoyage","countryCode":"AU","population":"1843459","lat":"-27.47101","lon":"153.024292","loc":{"continent":"Oceania","country":"Australia","countryCode":"AU","state":"Queensland","city":"Brisbane City","locality":"Spring Hill","colloquial_area":"Brisbane","neighborhood":""}},{"bookurData":"Canberra","wikiData":"Canberra","bookurDataId":"","wikiDataId":"59647688811c3f826c4986cd","wikiDataType":"page","source":"wikivoyage","countryCode":"AU","population":"324025","lat":"-35.27603","lon":"149.13435","loc":{"continent":"Oceania","country":"Australia","countryCode":"AU","state":"Australian Capital Territory","city":"","locality":"Reid","colloquial_area":"Canberra","neighborhood":"Canberra Central"}},{"bookurData":"Gold Coast","wikiData":"Gold Coast","bookurDataId":"","wikiDataId":"596476e4811c3f826c499f4d","wikiDataType":"page","source":"wikivoyage","countryCode":"AU","population":"501175","lat":"-28.00029","lon":"153.430878","loc":{"continent":"Oceania","country":"Australia","countryCode":"AU","state":"Queensland","city":"Gold Coast City","locality":"Benowa","colloquial_area":"Gold Coast","neighborhood":""}},{"bookurData":"Melbourne","wikiData":"Melbourne","bookurDataId":"","wikiDataId":"5964775a811c3f826c49be80","wikiDataType":"page","source":"wikivoyage","countryCode":"AU","population":"3730212","lat":"-37.813938","lon":"144.963425","loc":{"continent":"Oceania","country":"Australia","countryCode":"AU","state":"Victoria","city":"Melbourne City","locality":"Melbourne","colloquial_area":"Melbourne","neighborhood":""}},{"bookurData":"Perth","wikiData":"Perth","bookurDataId":"","wikiDataId":"596477a2811c3f826c49d14c","wikiDataType":"page","source":"wikivoyage","countryCode":"AU","population":"1446715","lat":"-31.95224","lon":"115.861397","loc":{"continent":"Oceania","country":"Australia","countryCode":"AU","state":"Western Australia","city":"City of Perth","locality":"Perth","colloquial_area":"Perth","neighborhood":""}},{"bookurData":"Sydney","wikiData":"Sydney","bookurDataId":"","wikiDataId":"59647804811c3f826c49ebad","wikiDataType":"page","source":"wikivoyage","countryCode":"AU","population":"4394585","lat":"-33.861481","lon":"151.205475","loc":{"continent":"Oceania","country":"Australia","countryCode":"AU","state":"New South Wales","city":"Council of the City of Sydney","locality":"Sydney","colloquial_area":"Sydney","neighborhood":""}},{"bookurData":"Baku","wikiData":"Baku","bookurDataId":"","wikiDataId":"59647655811c3f826c497b92","wikiDataType":"page","source":"wikivoyage","countryCode":"AZ","population":"1116513","lat":"40.395278","lon":"49.882222","loc":{"continent":"Asia","country":"Azerbaijan","countryCode":"AZ","state":"","city":"Baku","locality":"Baku","colloquial_area":"","neighborhood":""}},{"bookurData":"Sarajevo","wikiData":"Sarajevo","bookurDataId":"","wikiDataId":"596477d9811c3f826c49e01b","wikiDataType":"page","source":"wikivoyage","countryCode":"BA","population":"696726","lat":"43.85","lon":"18.3833333","loc":{"continent":"Europe","country":"Bosnia and Herzegovina","countryCode":"BA","state":"Federation of Bosnia and Herzegovina","city":"Kanton Sarajevo","locality":"Sarajevo","colloquial_area":"","neighborhood":"Hrasno"}},{"bookurData":"Dhaka","wikiData":"Dhaka","bookurDataId":"","wikiDataId":"596476b6811c3f826c49932e","wikiDataType":"page","source":"wikivoyage","countryCode":"BD","population":"6493177","lat":"23.7230556","lon":"90.4086111","loc":{"continent":"Asia","country":"Bangladesh","countryCode":"BD","state":"Dhaka Division","city":"Dhaka District","locality":"Dhaka","colloquial_area":"","neighborhood":""}},{"bookurData":"Khulna","wikiData":"Khulna","bookurDataId":"","wikiDataId":"59647722811c3f826c49af39","wikiDataType":"page","source":"wikivoyage","countryCode":"BD","population":"1342429","lat":"22.8","lon":"89.55","loc":{"continent":"Asia","country":"Bangladesh","countryCode":"BD","state":"Khulna Division","city":"Khulna District","locality":"Khulna","colloquial_area":"","neighborhood":""}},{"bookurData":"Rajshahi","wikiData":"Rajshahi","bookurDataId":"","wikiDataId":"596477bb811c3f826c49d794","wikiDataType":"page","source":"wikivoyage","countryCode":"BD","population":"700206","lat":"24.3666667","lon":"88.6","loc":{"continent":"Asia","country":"Bangladesh","countryCode":"BD","state":"Rajshahi Division","city":"Rajshahi District","locality":"Rajshahi","colloquial_area":"","neighborhood":""}},{"bookurData":"Antwerp","wikiData":"Antwerp","bookurDataId":"","wikiDataId":"59647648811c3f826c49780f","wikiDataType":"page","source":"wikivoyage","countryCode":"BE","population":"459805","lat":"51.216667","lon":"4.416667","loc":{"continent":"Europe","country":"Belgium","countryCode":"BE","state":"Flanders","city":"Antwerp","locality":"Antwerp","colloquial_area":"","neighborhood":"Diamant"}},{"bookurData":"Brussels","wikiData":"Brussels","bookurDataId":"","wikiDataId":"5964767b811c3f826c4983f4","wikiDataType":"page","source":"wikivoyage","countryCode":"BE","population":"1019022","lat":"50.833333","lon":"4.333333","loc":{"continent":"Europe","country":"Belgium","countryCode":"BE","state":"Brussels","city":"","locality":"Saint-Gilles","colloquial_area":"","neighborhood":""}},{"bookurData":"Bobo Dioulasso","wikiData":"Bobo-Dioulasso","bookurDataId":"","wikiDataId":"59647670811c3f826c49813b","wikiDataType":"page","source":"wikivoyage","countryCode":"BF","population":"370809","lat":"11.2","lon":"-4.3","loc":{"continent":"Africa","country":"Burkina Faso","countryCode":"BF","state":"Hauts-Bassins Region","city":"Houet","locality":"Bobo-Dioulasso","colloquial_area":"","neighborhood":""}},{"bookurData":"Ouagadougou","wikiData":"Ouagadougou","bookurDataId":"","wikiDataId":"59647795811c3f826c49cdab","wikiDataType":"page","source":"wikivoyage","countryCode":"BF","population":"1031330","lat":"12.3702778","lon":"-1.5247222","loc":{"continent":"Africa","country":"Burkina Faso","countryCode":"BF","state":"Centre Region","city":"Kadiogo","locality":"Ouagadougou","colloquial_area":"","neighborhood":""}},{"bookurData":"Plovdiv","wikiData":"Plovdiv","bookurDataId":"","wikiDataId":"596477a9811c3f826c49d33d","wikiDataType":"page","source":"wikivoyage","countryCode":"BG","population":"332088","lat":"42.15","lon":"24.75","loc":{"continent":"Europe","country":"Bulgaria","countryCode":"BG","state":"Plovdiv Province","city":"Plovdiv","locality":"Plovdiv","colloquial_area":"","neighborhood":""}},{"bookurData":"Sofia","wikiData":"Sofia","bookurDataId":"","wikiDataId":"596477f0811c3f826c49e5b0","wikiDataType":"page","source":"wikivoyage","countryCode":"BG","population":"1062065","lat":"42.6833333","lon":"23.3166667","loc":{"continent":"Europe","country":"Bulgaria","countryCode":"BG","state":"Sofia City Province","city":"Sofia","locality":"Sofia","colloquial_area":"","neighborhood":"Sofia Center"}},{"bookurData":"Varna","wikiData":"Varna","bookurDataId":"","wikiDataId":"59647830811c3f826c49f5b5","wikiDataType":"page","source":"wikivoyage","countryCode":"BG","population":"307952","lat":"43.2166667","lon":"27.9166667","loc":{"continent":"Europe","country":"Bulgaria","countryCode":"BG","state":"Varna","city":"Varna Municipality","locality":"Varna","colloquial_area":"","neighborhood":"Varna Center"}},{"bookurData":"Bujumbura","wikiData":"Bujumbura","bookurDataId":"","wikiDataId":"5964767d811c3f826c49845b","wikiDataType":"page","source":"wikivoyage","countryCode":"BI","population":"330539","lat":"-3.3761111","lon":"29.36","loc":{"continent":"Africa","country":"Burundi","countryCode":"BI","state":"Bujumbura Mairie","city":"Buterere","locality":"Bujumbura","colloquial_area":"","neighborhood":""}},{"bookurData":"Abomey-Calavi","wikiData":"Abomey-Calavi","bookurDataId":"","wikiDataId":"5966145210456ad96939d41b","wikiDataType":"page","source":"wikipedia","countryCode":"BJ","population":"385823","lat":"6.45","lon":"2.35","loc":{"continent":"Africa","country":"Benin","countryCode":"BJ","state":"Atlantique Department","city":"Abomey-Calavi","locality":"Abomey Calavi","colloquial_area":"","neighborhood":""}},{"bookurData":"Cotonou","wikiData":"Cotonou","bookurDataId":"","wikiDataId":"596476a8811c3f826c498fbc","wikiDataType":"page","source":"wikivoyage","countryCode":"BJ","population":"690584","lat":"6.35","lon":"2.4333333","loc":{"continent":"Africa","country":"Benin","countryCode":"BJ","state":"Littoral Department","city":"Cotonou","locality":"Cotonou","colloquial_area":"","neighborhood":""}},{"bookurData":"Cochabamba","wikiData":"Cochabamba","bookurDataId":"","wikiDataId":"596476a1811c3f826c498df5","wikiDataType":"page","source":"wikivoyage","countryCode":"BO","population":"900440","lat":"-17.3833333","lon":"-66.15","loc":{"continent":"South America","country":"Bolivia","countryCode":"BO","state":"Cochabamba Department","city":"Cercado","locality":"Cochabamba","colloquial_area":"","neighborhood":""}},{"bookurData":"La Paz","wikiData":"La Paz","bookurDataId":"","wikiDataId":"59647735811c3f826c49b4c9","wikiDataType":"page","source":"wikivoyage","countryCode":"BO","population":"812819","lat":"-16.5","lon":"-68.15","loc":{"continent":"South America","country":"Bolivia","countryCode":"BO","state":"La Paz Department","city":"","locality":"La Paz","colloquial_area":"","neighborhood":""}},{"bookurData":"Ananindeua","wikiData":"Ananindeua, Pará","bookurDataId":"","wikiDataId":"596628c610456ad969440724","wikiDataType":"page","source":"wikipedia","countryCode":"BR","population":"433956","lat":"-1.366667","lon":"-48.383333","loc":{"continent":"South America","country":"Brazil","countryCode":"BR","state":"State of Pará","city":"Ananindeua","locality":"Ananindeua, Pará","colloquial_area":"","neighborhood":""}},{"bookurData":"Anapolis","wikiData":"Anápolis","bookurDataId":"","wikiDataId":"5965c5c010456ad96923c292","wikiDataType":"page","source":"wikipedia","countryCode":"BR","population":"319592","lat":"-16.333333","lon":"-48.966667","loc":{"continent":"South America","country":"Brazil","countryCode":"BR","state":"State of Goiás","city":"Anápolis","locality":"Anápolis","colloquial_area":"","neighborhood":""}},{"bookurData":"Aracaju","wikiData":"Aracaju","bookurDataId":"","wikiDataId":"59647649811c3f826c497862","wikiDataType":"page","source":"wikivoyage","countryCode":"BR","population":"490184","lat":"-10.916667","lon":"-37.066667","loc":{"continent":"South America","country":"Brazil","countryCode":"BR","state":"State of Sergipe","city":"Aracaju","locality":"Aracaju","colloquial_area":"","neighborhood":""}},{"bookurData":"Bauru","wikiData":"Bauru","bookurDataId":"","wikiDataId":"5964765f811c3f826c497d87","wikiDataType":"page","source":"wikivoyage","countryCode":"BR","population":"335031","lat":"-22.316667","lon":"-49.066667","loc":{"continent":"South America","country":"Brazil","countryCode":"BR","state":"State of São Paulo","city":"Bauru","locality":"Bauru","colloquial_area":"","neighborhood":""}},{"bookurData":"Belem","wikiData":"Belém","bookurDataId":"","wikiDataId":"59647663811c3f826c497e64","wikiDataType":"page","source":"wikivoyage","countryCode":"BR","population":"1407737","lat":"-1.45","lon":"-48.483333","loc":{"continent":"South America","country":"Brazil","countryCode":"BR","state":"Pará","city":"Belém","locality":"Belém","colloquial_area":"","neighborhood":""}},{"bookurData":"Belford Roxo","wikiData":"Belford Roxo, Rio de Janeiro","bookurDataId":"","wikiDataId":"5966287510456ad96943dbc3","wikiDataType":"page","source":"wikipedia","countryCode":"BR","population":"466101","lat":"-22.761995","lon":"-43.404654","loc":{"continent":"South America","country":"Brazil","countryCode":"BR","state":"State of Rio de Janeiro","city":"Belford Roxo","locality":"Belford Roxo, Rio de Janeiro","colloquial_area":"","neighborhood":""}},{"bookurData":"Belo Horizonte","wikiData":"Belo Horizonte","bookurDataId":"","wikiDataId":"59647665811c3f826c497ebc","wikiDataType":"page","source":"wikivoyage","countryCode":"BR","population":"2373255","lat":"-19.916667","lon":"-43.933333","loc":{"continent":"South America","country":"Brazil","countryCode":"BR","state":"State of Minas Gerais","city":"Belo Horizonte","locality":"Belo Horizonte","colloquial_area":"","neighborhood":""}},{"bookurData":"Betim","wikiData":"Betim","bookurDataId":"","wikiDataId":"596628c610456ad969440730","wikiDataType":"page","source":"wikipedia","countryCode":"BR","population":"384038","lat":"-19.966667","lon":"-44.216667","loc":{"continent":"South America","country":"Brazil","countryCode":"BR","state":"State of Minas Gerais","city":"Betim","locality":"Betim","colloquial_area":"","neighborhood":""}},{"bookurData":"Brasilia","wikiData":"Brasilia","bookurDataId":"","wikiDataId":"59647676811c3f826c4982c5","wikiDataType":"page","source":"wikivoyage","countryCode":"BR","population":"2207812","lat":"-15.783333","lon":"-47.916667","loc":{"continent":"South America","country":"Brazil","countryCode":"BR","state":"Federal District","city":"Brasilia","locality":"Brasília","colloquial_area":"","neighborhood":""}},{"bookurData":"Campina Grande","wikiData":"Campina Grande","bookurDataId":"","wikiDataId":"59647686811c3f826c4986a1","wikiDataType":"page","source":"wikivoyage","countryCode":"BR","population":"348943","lat":"-7.216667","lon":"-35.883333","loc":{"continent":"South America","country":"Brazil","countryCode":"BR","state":"Paraíba","city":"Campina Grande","locality":"Campina Grande","colloquial_area":"","neighborhood":""}},{"bookurData":"Campinas","wikiData":"Campinas","bookurDataId":"","wikiDataId":"59647686811c3f826c4986a2","wikiDataType":"page","source":"wikivoyage","countryCode":"BR","population":"1031573","lat":"-22.9","lon":"-47.083333","loc":{"continent":"South America","country":"Brazil","countryCode":"BR","state":"State of São Paulo","city":"Campinas","locality":"Campinas","colloquial_area":"","neighborhood":""}},{"bookurData":"Campo Grande","wikiData":"Campo Grande","bookurDataId":"","wikiDataId":"59647686811c3f826c4986ad","wikiDataType":"page","source":"wikivoyage","countryCode":"BR","population":"729164","lat":"-20.45","lon":"-54.616667","loc":{"continent":"South America","country":"Brazil","countryCode":"BR","state":"Mato Grosso do Sul","city":"Campo Grande","locality":"Campo Grande","colloquial_area":"","neighborhood":""}},{"bookurData":"Canoas","wikiData":"Canoas","bookurDataId":"","wikiDataId":"59647867811c3f826c4a08f6","wikiDataType":"page","source":"wikivoyage","countryCode":"BR","population":"328297","lat":"-29.933333","lon":"-51.183333","loc":{"continent":"South America","country":"Brazil","countryCode":"BR","state":"State of Rio Grande do Sul","city":"Canoas","locality":"Canoas","colloquial_area":"","neighborhood":""}},{"bookurData":"Carapicuiba","wikiData":"Carapicuíba","bookurDataId":"","wikiDataId":"5965eb9610456ad9692ad8a3","wikiDataType":"page","source":"wikipedia","countryCode":"BR","population":"361120","lat":"-23.516667","lon":"-46.833333","loc":{"continent":"South America","country":"Brazil","countryCode":"BR","state":"State of São Paulo","city":"Carapicuíba","locality":"Carapicuiba","colloquial_area":"","neighborhood":""}},{"bookurData":"Cariacica","wikiData":"Cariacica","bookurDataId":"","wikiDataId":"59647867811c3f826c4a08d4","wikiDataType":"page","source":"wikivoyage","countryCode":"BR","population":"330681","lat":"-20.266667","lon":"-40.416667","loc":{"continent":"South America","country":"Brazil","countryCode":"BR","state":"State of Espírito Santo","city":"Cariacica","locality":"","colloquial_area":"","neighborhood":""}},{"bookurData":"Contagem","wikiData":"Contagem","bookurDataId":"","wikiDataId":"5965dde910456ad969271d43","wikiDataType":"page","source":"wikipedia","countryCode":"BR","population":"627132","lat":"-19.916667","lon":"-44.1","loc":{"continent":"South America","country":"Brazil","countryCode":"BR","state":"State of Minas Gerais","city":"Contagem","locality":"Contagem","colloquial_area":"","neighborhood":""}},{"bookurData":"Cuiaba","wikiData":"Cuiabá","bookurDataId":"","wikiDataId":"596476ad811c3f826c4990aa","wikiDataType":"page","source":"wikivoyage","countryCode":"BR","population":"521961","lat":"-15.583333","lon":"-56.083333","loc":{"continent":"South America","country":"Brazil","countryCode":"BR","state":"Mato Grosso","city":"Cuiabá","locality":"Cuiabá","colloquial_area":"","neighborhood":""}},{"bookurData":"Curitiba","wikiData":"Curitiba","bookurDataId":"","wikiDataId":"596476ad811c3f826c4990d5","wikiDataType":"page","source":"wikivoyage","countryCode":"BR","population":"1718433","lat":"-25.416667","lon":"-49.25","loc":{"continent":"South America","country":"Brazil","countryCode":"BR","state":"State of Paraná","city":"Curitiba","locality":"Curitiba","colloquial_area":"","neighborhood":""}},{"bookurData":"Florianopolis","wikiData":"Florianopolis","bookurDataId":"","wikiDataId":"596476d6811c3f826c499b29","wikiDataType":"page","source":"wikivoyage","countryCode":"BR","population":"412731","lat":"-27.583333","lon":"-48.566667","loc":{"continent":"South America","country":"Brazil","countryCode":"BR","state":"Santa Catarina","city":"Florianópolis","locality":"Florianópolis","colloquial_area":"","neighborhood":""}},{"bookurData":"Fortaleza","wikiData":"Fortaleza","bookurDataId":"","wikiDataId":"596476d7811c3f826c499b89","wikiDataType":"page","source":"wikivoyage","countryCode":"BR","population":"2416920","lat":"-3.316667","lon":"-41.416667","loc":{"continent":"South America","country":"Brazil","countryCode":"BR","state":"State of Piauí","city":"Luís Correia","locality":"","colloquial_area":"","neighborhood":""}},{"bookurData":"Franca","wikiData":"Franca","bookurDataId":"","wikiDataId":"5965ec6010456ad9692b0ee3","wikiDataType":"page","source":"wikipedia","countryCode":"BR","population":"305047","lat":"-20.533333","lon":"-47.4","loc":{"continent":"South America","country":"Brazil","countryCode":"BR","state":"São Paulo","city":"Franca","locality":"Franca","colloquial_area":"","neighborhood":""}},{"bookurData":"Goiania","wikiData":"Goiânia","bookurDataId":"","wikiDataId":"596476e4811c3f826c499f44","wikiDataType":"page","source":"wikivoyage","countryCode":"BR","population":"1171209","lat":"-16.666667","lon":"-49.266667","loc":{"continent":"South America","country":"Brazil","countryCode":"BR","state":"Goiás","city":"Goiânia","locality":"Goiânia","colloquial_area":"","neighborhood":""}},{"bookurData":"Guaruja","wikiData":"Guarujá","bookurDataId":"","wikiDataId":"596476eb811c3f826c49a1a4","wikiDataType":"page","source":"wikivoyage","countryCode":"BR","population":"310430","lat":"-24","lon":"-46.266667","loc":{"continent":"South America","country":"Brazil","countryCode":"BR","state":"State of São Paulo","city":"Guarujá","locality":"Guarujá","colloquial_area":"","neighborhood":""}},{"bookurData":"Guarulhos","wikiData":"Guarulhos","bookurDataId":"","wikiDataId":"596476eb811c3f826c49a1a5","wikiDataType":"page","source":"wikivoyage","countryCode":"BR","population":"1169601","lat":"-23.45068","lon":"-46.526175","loc":{"continent":"South America","country":"Brazil","countryCode":"BR","state":"State of São Paulo","city":"Guarulhos","locality":"Guarulhos","colloquial_area":"","neighborhood":""}},{"bookurData":"Itaquaquecetuba","wikiData":"Itaquaquecetuba","bookurDataId":"","wikiDataId":"5965ecc210456ad9692b24df","wikiDataType":"page","source":"wikipedia","countryCode":"BR","population":"336686","lat":"-23.483333","lon":"-46.35","loc":{"continent":"South America","country":"Brazil","countryCode":"BR","state":"State of São Paulo","city":"Itaquaquecetuba","locality":"Itaquaquecetuba","colloquial_area":"","neighborhood":""}},{"bookurData":"Jaboatao","wikiData":"Jaboatão dos Guararapes","bookurDataId":"","wikiDataId":"596628c610456ad9694407b7","wikiDataType":"page","source":"wikipedia","countryCode":"BR","population":"702632","lat":"-8.116667","lon":"-35.016667","loc":{"continent":"South America","country":"Brazil","countryCode":"BR","state":"Pernambuco","city":"Jaboatão dos Guararapes","locality":"Jaboatão dos Guararapes","colloquial_area":"","neighborhood":""}},{"bookurData":"Joao Pessoa","wikiData":"João Pessoa, Paraíba","bookurDataId":"","wikiDataId":"5965cd3510456ad969248f9e","wikiDataType":"page","source":"wikipedia","countryCode":"BR","population":"650896","lat":"-7.116667","lon":"-34.866667","loc":{"continent":"South America","country":"Brazil","countryCode":"BR","state":"State of Paraíba","city":"João Pessoa","locality":"João Pessoa, Paraíba","colloquial_area":"","neighborhood":""}},{"bookurData":"Joinville","wikiData":"Joinville","bookurDataId":"","wikiDataId":"59647714811c3f826c49abb2","wikiDataType":"page","source":"wikivoyage","countryCode":"BR","population":"461312","lat":"-26.3","lon":"-48.833333","loc":{"continent":"South America","country":"Brazil","countryCode":"BR","state":"State of Santa Catarina","city":"Joinville","locality":"Joinville","colloquial_area":"","neighborhood":""}},{"bookurData":"Jundiai","wikiData":"Jundiaí","bookurDataId":"","wikiDataId":"59647715811c3f826c49abfa","wikiDataType":"page","source":"wikivoyage","countryCode":"BR","population":"321595","lat":"-23.183333","lon":"-46.866667","loc":{"continent":"South America","country":"Brazil","countryCode":"BR","state":"State of São Paulo","city":"Jundiaí","locality":"Jundiaí","colloquial_area":"","neighborhood":""}},{"bookurData":"Londrina","wikiData":"Londrina","bookurDataId":"","wikiDataId":"59647742811c3f826c49b897","wikiDataType":"page","source":"wikivoyage","countryCode":"BR","population":"471836","lat":"-23.3","lon":"-51.15","loc":{"continent":"South America","country":"Brazil","countryCode":"BR","state":"Paraná","city":"Londrina","locality":"Londrina","colloquial_area":"","neighborhood":""}},{"bookurData":"Macapa","wikiData":"Macapá","bookurDataId":"","wikiDataId":"59647748811c3f826c49ba23","wikiDataType":"page","source":"wikivoyage","countryCode":"BR","population":"338937","lat":"0.033333","lon":"-51.05","loc":{"continent":"South America","country":"Brazil","countryCode":"BR","state":"State of Amapá","city":"Macapá","locality":"Macapá","colloquial_area":"","neighborhood":""}},{"bookurData":"Maceio","wikiData":"Maceió","bookurDataId":"","wikiDataId":"59647749811c3f826c49ba34","wikiDataType":"page","source":"wikivoyage","countryCode":"BR","population":"955010","lat":"-9.666667","lon":"-35.716667","loc":{"continent":"South America","country":"Brazil","countryCode":"BR","state":"State of Alagoas","city":"Maceió","locality":"Maceió","colloquial_area":"","neighborhood":""}},{"bookurData":"Manaus","wikiData":"Manaus","bookurDataId":"","wikiDataId":"5964774f811c3f826c49bb9a","wikiDataType":"page","source":"wikivoyage","countryCode":"BR","population":"1598227","lat":"-3.113333","lon":"-60.025278","loc":{"continent":"South America","country":"Brazil","countryCode":"BR","state":"State of Amazonas","city":"Manaus","locality":"Manaus","colloquial_area":"","neighborhood":""}},{"bookurData":"Maua","wikiData":"Maua","bookurDataId":"","wikiDataId":"59662f2610456ad969471365","wikiDataType":"page","source":"wikipedia","countryCode":"BR","population":"386077","lat":"-23.666667","lon":"-46.45","loc":{"continent":"South America","country":"Brazil","countryCode":"BR","state":"São Paulo","city":"Mauá","locality":"Mauá","colloquial_area":"","neighborhood":""}},{"bookurData":"Montes Claros","wikiData":"Montes Claros","bookurDataId":"","wikiDataId":"59647765811c3f826c49c1a9","wikiDataType":"page","source":"wikivoyage","countryCode":"BR","population":"332384","lat":"-16.716667","lon":"-43.866667","loc":{"continent":"South America","country":"Brazil","countryCode":"BR","state":"State of Minas Gerais","city":"Montes Claros","locality":"Montes Claros","colloquial_area":"","neighborhood":""}},{"bookurData":"Natal","wikiData":"Natal","bookurDataId":"","wikiDataId":"59647775811c3f826c49c5a2","wikiDataType":"page","source":"wikivoyage","countryCode":"BR","population":"763057","lat":"-5.783333","lon":"-35.216667","loc":{"continent":"South America","country":"Brazil","countryCode":"BR","state":"State of Rio Grande do Norte","city":"Natal","locality":"Natal","colloquial_area":"","neighborhood":""}},{"bookurData":"Niteroi","wikiData":"Niterói","bookurDataId":"","wikiDataId":"59647782811c3f826c49c810","wikiDataType":"page","source":"wikivoyage","countryCode":"BR","population":"456461","lat":"-22.90214","lon":"-43.130301","loc":{"continent":"South America","country":"Brazil","countryCode":"BR","state":"State of Rio de Janeiro","city":"Niterói","locality":"Niterói","colloquial_area":"","neighborhood":""}},{"bookurData":"Nova Iguacu","wikiData":"Nova Iguaçu","bookurDataId":"","wikiDataId":"5965fb9210456ad9692fa279","wikiDataType":"page","source":"wikipedia","countryCode":"BR","population":"1002129","lat":"-22.759188","lon":"-43.431887","loc":{"continent":"South America","country":"Brazil","countryCode":"BR","state":"State of Rio de Janeiro","city":"Nova Iguaçu","locality":"Nova Iguaçu","colloquial_area":"","neighborhood":""}},{"bookurData":"Olinda","wikiData":"Olinda","bookurDataId":"","wikiDataId":"59647790811c3f826c49cc5c","wikiDataType":"page","source":"wikivoyage","countryCode":"BR","population":"366761","lat":"-8.016667","lon":"-34.85","loc":{"continent":"South America","country":"Brazil","countryCode":"BR","state":"State of Pernambuco","city":"Olinda","locality":"Olinda","colloquial_area":"","neighborhood":""}},{"bookurData":"Osasco","wikiData":"Osasco","bookurDataId":"","wikiDataId":"59647794811c3f826c49cd51","wikiDataType":"page","source":"wikivoyage","countryCode":"BR","population":"677869","lat":"-23.566667","lon":"-46.783333","loc":{"continent":"South America","country":"Brazil","countryCode":"BR","state":"São Paulo","city":"São Paulo","locality":"Osasco","colloquial_area":"","neighborhood":""}},{"bookurData":"Pelotas","wikiData":"Pelotas","bookurDataId":"","wikiDataId":"596477a0811c3f826c49d0c2","wikiDataType":"page","source":"wikivoyage","countryCode":"BR","population":"320680","lat":"-31.766667","lon":"-52.333333","loc":{"continent":"South America","country":"Brazil","countryCode":"BR","state":"State of Rio Grande do Sul","city":"Pelotas","locality":"Pelotas","colloquial_area":"","neighborhood":""}},{"bookurData":"Piracicaba","wikiData":"Piracicaba","bookurDataId":"","wikiDataId":"5964786f811c3f826c4a0d57","wikiDataType":"page","source":"wikivoyage","countryCode":"BR","population":"342216","lat":"-22.716667","lon":"-47.633333","loc":{"continent":"South America","country":"Brazil","countryCode":"BR","state":"State of São Paulo","city":"Piracicaba","locality":"Piracicaba","colloquial_area":"","neighborhood":""}},{"bookurData":"Porto Alegre","wikiData":"Porto Alegre","bookurDataId":"","wikiDataId":"596477ae811c3f826c49d45a","wikiDataType":"page","source":"wikivoyage","countryCode":"BR","population":"1372763","lat":"-30.033333","lon":"-51.2","loc":{"continent":"South America","country":"Brazil","countryCode":"BR","state":"State of Rio Grande do Sul","city":"Porto Alegre","locality":"Porto Alegre","colloquial_area":"","neighborhood":""}},{"bookurData":"Porto Velho","wikiData":"Porto Velho","bookurDataId":"","wikiDataId":"596477ae811c3f826c49d476","wikiDataType":"page","source":"wikivoyage","countryCode":"BR","population":"306206","lat":"-8.766667","lon":"-63.9","loc":{"continent":"South America","country":"Brazil","countryCode":"BR","state":"State of Rondônia","city":"Porto Velho","locality":"Porto Velho","colloquial_area":"","neighborhood":""}},{"bookurData":"Recife","wikiData":"Recife","bookurDataId":"","wikiDataId":"596477be811c3f826c49d86d","wikiDataType":"page","source":"wikivoyage","countryCode":"BR","population":"1478118","lat":"-8.05","lon":"-34.9","loc":{"continent":"South America","country":"Brazil","countryCode":"BR","state":"Pernambuco","city":"Recife","locality":"Recife","colloquial_area":"","neighborhood":""}},{"bookurData":"Ribeirao Preto","wikiData":"Ribeirão Preto","bookurDataId":"","wikiDataId":"596477c1811c3f826c49d93f","wikiDataType":"page","source":"wikivoyage","countryCode":"BR","population":"551278","lat":"-21.166667","lon":"-47.8","loc":{"continent":"South America","country":"Brazil","countryCode":"BR","state":"São Paulo","city":"Ribeirão Preto","locality":"Ribeirao Preto","colloquial_area":"","neighborhood":""}},{"bookurData":"Rio De Janeiro","wikiData":"Rio de Janeiro","bookurDataId":"","wikiDataId":"5965bb2310456ad969226352","wikiDataType":"page","source":"wikipedia","countryCode":"BR","population":"6023742","lat":"-22.9","lon":"-43.233333","loc":{"continent":"South America","country":"Brazil","countryCode":"BR","state":"State of Rio de Janeiro","city":"Rio de Janeiro","locality":"Rio de Janeiro","colloquial_area":"","neighborhood":""}},{"bookurData":"Salvador","wikiData":"Salvador","bookurDataId":"","wikiDataId":"596477d0811c3f826c49dd68","wikiDataType":"page","source":"wikivoyage","countryCode":"BR","population":"2711903","lat":"-12.983333","lon":"-38.516667","loc":{"continent":"South America","country":"Brazil","countryCode":"BR","state":"Bahia","city":"Salvador","locality":"Salvador","colloquial_area":"","neighborhood":""}},{"bookurData":"Santo Andre","wikiData":"Santo André","bookurDataId":"","wikiDataId":"596477d8811c3f826c49dfcd","wikiDataType":"page","source":"wikivoyage","countryCode":"BR","population":"662387","lat":"-23.666667","lon":"-46.516667","loc":{"continent":"South America","country":"Brazil","countryCode":"BR","state":"São Paulo","city":"Santo André","locality":"Santo André","colloquial_area":"","neighborhood":""}},{"bookurData":"Santos","wikiData":"Santos","bookurDataId":"","wikiDataId":"596477d8811c3f826c49dfd6","wikiDataType":"page","source":"wikivoyage","countryCode":"BR","population":"411411","lat":"-23.95","lon":"-46.333333","loc":{"continent":"South America","country":"Brazil","countryCode":"BR","state":"State of São Paulo","city":"Santos","locality":"Santos","colloquial_area":"","neighborhood":""}},{"bookurData":"Sao Bernardo Do Campo","wikiData":"São Bernardo do Campo","bookurDataId":"","wikiDataId":"5965f75e10456ad9692e46a9","wikiDataType":"page","source":"wikipedia","countryCode":"BR","population":"743386","lat":"-23.7","lon":"-46.55","loc":{"continent":"South America","country":"Brazil","countryCode":"BR","state":"São Paulo","city":"São Bernardo do Campo","locality":"São Bernardo do Campo","colloquial_area":"","neighborhood":""}},{"bookurData":"Sao Jose Do Rio Preto","wikiData":"São José do Rio Preto","bookurDataId":"","wikiDataId":"5965da6810456ad969267893","wikiDataType":"page","source":"wikipedia","countryCode":"BR","population":"374706","lat":"-20.8","lon":"-49.383333","loc":{"continent":"South America","country":"Brazil","countryCode":"BR","state":"State of São Paulo","city":"São José do Rio Preto","locality":"Sao Jose do Rio Preto","colloquial_area":"","neighborhood":""}},{"bookurData":"Sao Jose Dos Campos","wikiData":"São José dos Campos","bookurDataId":"","wikiDataId":"5965e5fd10456ad96928f519","wikiDataType":"page","source":"wikipedia","countryCode":"BR","population":"613776","lat":"-23.183333","lon":"-45.883333","loc":{"continent":"South America","country":"Brazil","countryCode":"BR","state":"São Paulo","city":"São José dos Campos","locality":"São José dos Campos","colloquial_area":"","neighborhood":""}},{"bookurData":"Sao Luis","wikiData":"São Luís","bookurDataId":"","wikiDataId":"596477dc811c3f826c49e0af","wikiDataType":"page","source":"wikivoyage","countryCode":"BR","population":"917252","lat":"-2.516667","lon":"-44.266667","loc":{"continent":"South America","country":"Brazil","countryCode":"BR","state":"State of Maranhão","city":"São Luís","locality":"São Luís","colloquial_area":"","neighborhood":""}},{"bookurData":"Sao Paulo","wikiData":"São Paulo","bookurDataId":"","wikiDataId":"596477dc811c3f826c49e0b3","wikiDataType":"page","source":"wikivoyage","countryCode":"BR","population":"10021437","lat":"-23.473293","lon":"-46.665803","loc":{"continent":"South America","country":"Brazil","countryCode":"BR","state":"São Paulo","city":"São Paulo","locality":"São Paulo","colloquial_area":"","neighborhood":""}},{"bookurData":"Sao Vicente","wikiData":"São Vicente","bookurDataId":"","wikiDataId":"5965f60710456ad9692ddc47","wikiDataType":"page","source":"wikipedia","countryCode":"BR","population":"324464","lat":"-23.966667","lon":"-46.383333","loc":{"continent":"South America","country":"Brazil","countryCode":"BR","state":"São Paulo","city":"São Vicente","locality":"São Vicente","colloquial_area":"","neighborhood":""}},{"bookurData":"Serra","wikiData":"Serra","bookurDataId":"","wikiDataId":"5965e1be10456ad96927e7f3","wikiDataType":"page","source":"wikipedia","countryCode":"BR","population":"394160","lat":"-20.116667","lon":"-40.3","loc":{"continent":"South America","country":"Brazil","countryCode":"BR","state":"State of Espírito Santo","city":"Serra","locality":"Serra","colloquial_area":"","neighborhood":""}},{"bookurData":"Sorocaba","wikiData":"Sorocaba","bookurDataId":"","wikiDataId":"596477f2811c3f826c49e63b","wikiDataType":"page","source":"wikivoyage","countryCode":"BR","population":"558874","lat":"-23.483333","lon":"-47.45","loc":{"continent":"South America","country":"Brazil","countryCode":"BR","state":"State of São Paulo","city":"Sorocaba","locality":"Sorocaba","colloquial_area":"","neighborhood":""}},{"bookurData":"Teresina","wikiData":"Teresina","bookurDataId":"","wikiDataId":"5964780f811c3f826c49ee77","wikiDataType":"page","source":"wikivoyage","countryCode":"BR","population":"744526","lat":"-5.083333","lon":"-42.816667","loc":{"continent":"South America","country":"Brazil","countryCode":"BR","state":"Piauí","city":"Teresina","locality":"Teresina","colloquial_area":"","neighborhood":""}},{"bookurData":"Uberlandia","wikiData":"Uberlândia","bookurDataId":"","wikiDataId":"5965e11b10456ad96927c236","wikiDataType":"page","source":"wikipedia","countryCode":"BR","population":"563545","lat":"-18.916667","lon":"-48.3","loc":{"continent":"South America","country":"Brazil","countryCode":"BR","state":"State of Minas Gerais","city":"Uberlândia","locality":"Uberlândia","colloquial_area":"","neighborhood":""}},{"bookurData":"Vila Velha","wikiData":"Vila Velha","bookurDataId":"","wikiDataId":"5965e1c810456ad96927ea84","wikiDataType":"page","source":"wikipedia","countryCode":"BR","population":"394937","lat":"-20.333333","lon":"-40.283333","loc":{"continent":"South America","country":"Brazil","countryCode":"BR","state":"Espírito Santo","city":"Vila Velha","locality":"Vila Velha","colloquial_area":"","neighborhood":""}},{"bookurData":"Vitoria","wikiData":"Vitoria","bookurDataId":"","wikiDataId":"59660c1e10456ad9693605f3","wikiDataType":"page","source":"wikipedia","countryCode":"BR","population":"312662","lat":"-20.316667","lon":"-40.35","loc":{"continent":"South America","country":"Brazil","countryCode":"BR","state":"State of Espírito Santo","city":"Vitória","locality":"Vitoria","colloquial_area":"","neighborhood":""}},{"bookurData":"Gomel","wikiData":"Gomel","bookurDataId":"","wikiDataId":"596476e5811c3f826c499f7c","wikiDataType":"page","source":"wikivoyage","countryCode":"BY","population":"481000","lat":"52.4416667","lon":"30.9833333","loc":{"continent":"Europe","country":"Belarus","countryCode":"BY","state":"Gomel Region","city":"Gomel District","locality":"Gomel","colloquial_area":"","neighborhood":"Zaliniejny"}},{"bookurData":"Hrodna","wikiData":"Grodno","bookurDataId":"","wikiDataId":"596476ea811c3f826c49a13e","wikiDataType":"page","source":"wikivoyage","countryCode":"BY","population":"317366","lat":"53.6813889","lon":"23.8147222","loc":{"continent":"Europe","country":"Belarus","countryCode":"BY","state":"Hrodna Region","city":"Grodna District","locality":"Grodno","colloquial_area":"","neighborhood":""}},{"bookurData":"Minsk","wikiData":"Minsk","bookurDataId":"","wikiDataId":"59647761811c3f826c49c082","wikiDataType":"page","source":"wikivoyage","countryCode":"BY","population":"1742123","lat":"53.9","lon":"27.5666667","loc":{"continent":"Europe","country":"Belarus","countryCode":"BY","state":"Minsk Region","city":"","locality":"Minsk","colloquial_area":"","neighborhood":""}},{"bookurData":"Calgary","wikiData":"Calgary","bookurDataId":"","wikiDataId":"59647684811c3f826c498640","wikiDataType":"page","source":"wikivoyage","countryCode":"CA","population":"968475","lat":"51.083333","lon":"-114.083333","loc":{"continent":"North America","country":"Canada","countryCode":"CA","state":"Alberta","city":"Division No. 6","locality":"Calgary","colloquial_area":"","neighborhood":"Northwest Calgary"}},{"bookurData":"Edmonton","wikiData":"Edmonton","bookurDataId":"","wikiDataId":"596476c8811c3f826c499753","wikiDataType":"page","source":"wikivoyage","countryCode":"CA","population":"822319","lat":"53.55","lon":"-113.5","loc":{"continent":"North America","country":"Canada","countryCode":"CA","state":"Alberta","city":"Division No. 11","locality":"Edmonton","colloquial_area":"","neighborhood":"North Central Edmonton"}},{"bookurData":"Kitchener","wikiData":"Kitchener","bookurDataId":"","wikiDataId":"59647725811c3f826c49b028","wikiDataType":"page","source":"wikivoyage","countryCode":"CA","population":"409111","lat":"43.45","lon":"-80.5","loc":{"continent":"North America","country":"Canada","countryCode":"CA","state":"Ontario","city":"Waterloo Regional Municipality","locality":"Kitchener","colloquial_area":"","neighborhood":"City Commercial Core"}},{"bookurData":"London","wikiData":"London","bookurDataId":"","wikiDataId":"59647741811c3f826c49b814","wikiDataType":"page","source":"wikivoyage","countryCode":"CA","population":"346774","lat":"42.983333","lon":"-81.25","loc":{"continent":"North America","country":"Canada","countryCode":"CA","state":"Ontario","city":"Middlesex County","locality":"London","colloquial_area":"","neighborhood":"Central London"}},{"bookurData":"Montreal","wikiData":"Montreal","bookurDataId":"","wikiDataId":"59647766811c3f826c49c1ce","wikiDataType":"page","source":"wikivoyage","countryCode":"CA","population":"3268513","lat":"45.5","lon":"-73.583333","loc":{"continent":"North America","country":"Canada","countryCode":"CA","state":"Quebec","city":"Montreal","locality":"Montreal","colloquial_area":"","neighborhood":"Golden Square Mile"}},{"bookurData":"Ottawa","wikiData":"Ottawa","bookurDataId":"","wikiDataId":"59647795811c3f826c49cda2","wikiDataType":"page","source":"wikivoyage","countryCode":"CA","population":"874433","lat":"45.416667","lon":"-75.7","loc":{"continent":"North America","country":"Canada","countryCode":"CA","state":"Ontario","city":"Ottawa Division","locality":"Ottawa","colloquial_area":"","neighborhood":"Centretown"}},{"bookurData":"Quebec","wikiData":"Quebec","bookurDataId":"","wikiDataId":"596477b7811c3f826c49d6e1","wikiDataType":"page","source":"wikivoyage","countryCode":"CA","population":"645623","lat":"46.8","lon":"-71.25","loc":{"continent":"North America","country":"Canada","countryCode":"CA","state":"Quebec","city":"Communauté-Urbaine-de-Québec","locality":"Québec City","colloquial_area":"","neighborhood":"Saint-Sacrement"}},{"bookurData":"Toronto","wikiData":"Toronto","bookurDataId":"","wikiDataId":"5964781a811c3f826c49f104","wikiDataType":"page","source":"wikivoyage","countryCode":"CA","population":"4612187","lat":"43.666667","lon":"-79.416667","loc":{"continent":"North America","country":"Canada","countryCode":"CA","state":"Ontario","city":"Toronto Division","locality":"Toronto","colloquial_area":"","neighborhood":"Midtown Toronto"}},{"bookurData":"Vancouver","wikiData":"Vancouver","bookurDataId":"","wikiDataId":"5964782f811c3f826c49f56e","wikiDataType":"page","source":"wikivoyage","countryCode":"CA","population":"1837970","lat":"49.25","lon":"-123.133333","loc":{"continent":"North America","country":"Canada","countryCode":"CA","state":"British Columbia","city":"Greater Vancouver","locality":"Vancouver","colloquial_area":"","neighborhood":"West Side"}},{"bookurData":"Winnipeg","wikiData":"Winnipeg","bookurDataId":"","wikiDataId":"59647845811c3f826c49fbba","wikiDataType":"page","source":"wikivoyage","countryCode":"CA","population":"632069","lat":"49.883333","lon":"-97.166667","loc":{"continent":"North America","country":"Canada","countryCode":"CA","state":"Manitoba","city":"Division No. 11","locality":"Winnipeg","colloquial_area":"","neighborhood":"Wolseley"}},{"bookurData":"Kananga","wikiData":"Kananga","bookurDataId":"","wikiDataId":"5965fc9010456ad9692ff4b3","wikiDataType":"page","source":"wikipedia","countryCode":"CD","population":"463556","lat":"-5.895833","lon":"22.417778","loc":{"continent":"Africa","country":"Democratic Republic of the Congo","countryCode":"CD","state":"Kasai Occidental","city":"Lulua","locality":"Kananga","colloquial_area":"","neighborhood":""}},{"bookurData":"Kinshasa","wikiData":"Kinshasa","bookurDataId":"","wikiDataId":"59647724811c3f826c49afee","wikiDataType":"page","source":"wikivoyage","countryCode":"CD","population":"7787832","lat":"-4.3","lon":"15.3","loc":{"continent":"Africa","country":"Democratic Republic of the Congo","countryCode":"CD","state":"Kinshasa","city":"Lukunga","locality":"Kinshasa","colloquial_area":"","neighborhood":""}},{"bookurData":"Kisangani","wikiData":"Kisangani","bookurDataId":"","wikiDataId":"59647724811c3f826c49b011","wikiDataType":"page","source":"wikivoyage","countryCode":"CD","population":"539164","lat":"0.516667","lon":"25.2","loc":{"continent":"Africa","country":"Democratic Republic of the Congo","countryCode":"CD","state":"Orientale","city":"Tshopo","locality":"Kisangani","colloquial_area":"","neighborhood":""}},{"bookurData":"Likasi","wikiData":"Likasi","bookurDataId":"","wikiDataId":"59660c9f10456ad969364277","wikiDataType":"page","source":"wikipedia","countryCode":"CD","population":"422726","lat":"-10.981389","lon":"26.733333","loc":{"continent":"Africa","country":"Democratic Republic of the Congo","countryCode":"CD","state":"Katanga","city":"Haut-Katanga","locality":"Likasi","colloquial_area":"","neighborhood":""}},{"bookurData":"Lubumbashi","wikiData":"Lubumbashi","bookurDataId":"","wikiDataId":"59647745811c3f826c49b97e","wikiDataType":"page","source":"wikivoyage","countryCode":"CD","population":"1374808","lat":"-11.666667","lon":"27.466667","loc":{"continent":"Africa","country":"Democratic Republic of the Congo","countryCode":"CD","state":"Katanga","city":"Haut-Katanga","locality":"Lubumbashi","colloquial_area":"","neighborhood":"Lido"}},{"bookurData":"Mbuji-Mayi","wikiData":"Mbuji-Mayi","bookurDataId":"","wikiDataId":"5965f5e410456ad9692dd483","wikiDataType":"page","source":"wikipedia","countryCode":"CD","population":"874974","lat":"-6.15","lon":"23.6","loc":{"continent":"Africa","country":"Democratic Republic of the Congo","countryCode":"CD","state":"Kasai Oriental","city":"Tshilenge District","locality":"Mbuji-Mayi","colloquial_area":"","neighborhood":""}},{"bookurData":"Bangui","wikiData":"Bangui","bookurDataId":"","wikiDataId":"5964765b811c3f826c497c80","wikiDataType":"page","source":"wikivoyage","countryCode":"CF","population":"684190","lat":"4.3666667","lon":"18.5833333","loc":{"continent":"Africa","country":"Central African Republic","countryCode":"CF","state":"Bangui","city":"Bangui","locality":"Bangui","colloquial_area":"","neighborhood":"City Center"}},{"bookurData":"Brazzaville","wikiData":"Brazzaville","bookurDataId":"","wikiDataId":"59647677811c3f826c4982db","wikiDataType":"page","source":"wikivoyage","countryCode":"CG","population":"1115773","lat":"-4.2591667","lon":"15.2847222","loc":{"continent":"Africa","country":"Republic of the Congo","countryCode":"CG","state":"Brazzaville","city":"","locality":"Brazzaville","colloquial_area":"","neighborhood":"OUENZÉ"}},{"bookurData":"Zurich","wikiData":"Zurich","bookurDataId":"","wikiDataId":"59647854811c3f826c49fef1","wikiDataType":"page","source":"wikivoyage","countryCode":"CH","population":"346185","lat":"47.366667","lon":"8.55","loc":{"continent":"Europe","country":"Switzerland","countryCode":"CH","state":"Zurich","city":"Zürich District","locality":"Zürich","colloquial_area":"","neighborhood":""}},{"bookurData":"Abidjan","wikiData":"Abidjan","bookurDataId":"","wikiDataId":"59647637811c3f826c49741d","wikiDataType":"page","source":"wikivoyage","countryCode":"CI","population":"3692570","lat":"5.309657","lon":"-4.012656","loc":{"continent":"Africa","country":"Ivory Coast","countryCode":"CI","state":"Lagunes Region","city":"Abidjan","locality":"Abidjan","colloquial_area":"","neighborhood":"Treichville Centre"}},{"bookurData":"Bouake","wikiData":"Bouaké","bookurDataId":"","wikiDataId":"59647674811c3f826c498248","wikiDataType":"page","source":"wikivoyage","countryCode":"CI","population":"572149","lat":"7.693846","lon":"-5.030307","loc":{"continent":"Africa","country":"Ivory Coast","countryCode":"CI","state":"Vallée du Bandama District","city":"Bouaké","locality":"Bouake","colloquial_area":"","neighborhood":""}},{"bookurData":"Antofagasta","wikiData":"Antofagasta","bookurDataId":"","wikiDataId":"59647647811c3f826c497807","wikiDataType":"page","source":"wikivoyage","countryCode":"CL","population":"309835","lat":"-23.65","lon":"-70.4","loc":{"continent":"South America","country":"Chile","countryCode":"CL","state":"Región de Antofagasta","city":"Antofagasta","locality":"Antofagasta","colloquial_area":"","neighborhood":""}},{"bookurData":"Santiago","wikiData":"Santiago","bookurDataId":"","wikiDataId":"5965be1110456ad96922a5ed","wikiDataType":"page","source":"wikipedia","countryCode":"CL","population":"4837248","lat":"-33.45","lon":"-70.666667","loc":{"continent":"South America","country":"Chile","countryCode":"CL","state":"Región Metropolitana","city":"Santiago","locality":"Santiago","colloquial_area":"Santiago","neighborhood":""}},{"bookurData":"Bamenda","wikiData":"Bamenda","bookurDataId":"","wikiDataId":"59647657811c3f826c497c09","wikiDataType":"page","source":"wikivoyage","countryCode":"CM","population":"393871","lat":"5.9333333","lon":"10.1666667","loc":{"continent":"Africa","country":"Cameroon","countryCode":"CM","state":"Northwest","city":"Momo","locality":"","colloquial_area":"","neighborhood":""}},{"bookurData":"Douala","wikiData":"Douala","bookurDataId":"","wikiDataId":"596476c0811c3f826c499502","wikiDataType":"page","source":"wikivoyage","countryCode":"CM","population":"1338144","lat":"4.0502778","lon":"9.7","loc":{"continent":"Africa","country":"Cameroon","countryCode":"CM","state":"Littoral","city":"Wouri","locality":"Douala","colloquial_area":"","neighborhood":"Bonalembe"}},{"bookurData":"Garoua","wikiData":"Garoua","bookurDataId":"","wikiDataId":"596476de811c3f826c499db0","wikiDataType":"page","source":"wikivoyage","countryCode":"CM","population":"436932","lat":"9.3","lon":"13.4","loc":{"continent":"Africa","country":"Cameroon","countryCode":"CM","state":"North","city":"Bénoué","locality":"Garoua","colloquial_area":"","neighborhood":""}},{"bookurData":"Kousseri","wikiData":"Kousséri","bookurDataId":"","wikiDataId":"596604f210456ad96932da98","wikiDataType":"page","source":"wikipedia","countryCode":"CM","population":"435986","lat":"12.0783333","lon":"15.0308333","loc":{"continent":"Africa","country":"Cameroon","countryCode":"CM","state":"Far North","city":"Logone-Et-Chari","locality":"Kousseri","colloquial_area":"","neighborhood":""}},{"bookurData":"Maroua","wikiData":"Maroua","bookurDataId":"","wikiDataId":"5965f80610456ad9692e7d08","wikiDataType":"page","source":"wikipedia","countryCode":"CM","population":"319974","lat":"10.5955556","lon":"14.3247222","loc":{"continent":"Africa","country":"Cameroon","countryCode":"CM","state":"Far North","city":"Diamare","locality":"Maroua","colloquial_area":"","neighborhood":""}},{"bookurData":"Yaounde","wikiData":"Yaoundé","bookurDataId":"","wikiDataId":"5964784b811c3f826c49fd37","wikiDataType":"page","source":"wikivoyage","countryCode":"CM","population":"1299446","lat":"3.8666667","lon":"11.5166667","loc":{"continent":"Africa","country":"Cameroon","countryCode":"CM","state":"Centre","city":"Lekie","locality":"Yaounde","colloquial_area":"","neighborhood":""}},{"bookurData":"Anqing","wikiData":"Anqing","bookurDataId":"","wikiDataId":"5966005d10456ad9693125a1","wikiDataType":"page","source":"wikipedia","countryCode":"CN","population":"358661","lat":"30.509167","lon":"117.050556","loc":{"continent":"Asia","country":"China","countryCode":"CN","state":"Anhui","city":"","locality":"Anqing","colloquial_area":"","neighborhood":""}},{"bookurData":"Anshan","wikiData":"Anshan","bookurDataId":"","wikiDataId":"59647647811c3f826c4977dd","wikiDataType":"page","source":"wikivoyage","countryCode":"CN","population":"1199275","lat":"41.123611","lon":"122.99","loc":{"continent":"Asia","country":"China","countryCode":"CN","state":"Liaoning","city":"","locality":"Anshan","colloquial_area":"","neighborhood":""}},{"bookurData":"Anshun","wikiData":"Anshun","bookurDataId":"","wikiDataId":"59647647811c3f826c4977de","wikiDataType":"page","source":"wikivoyage","countryCode":"CN","population":"351936","lat":"26.25","lon":"105.933333","loc":{"continent":"Asia","country":"China","countryCode":"CN","state":"Guizhou","city":"","locality":"Anshun","colloquial_area":"","neighborhood":""}},{"bookurData":"Anyang","wikiData":"Anyang","bookurDataId":"","wikiDataId":"59647648811c3f826c497813","wikiDataType":"page","source":"wikivoyage","countryCode":"CN","population":"781129","lat":"36.099444","lon":"114.328889","loc":{"continent":"Asia","country":"China","countryCode":"CN","state":"Henan","city":"","locality":"Anyang","colloquial_area":"","neighborhood":""}},{"bookurData":"Baicheng","wikiData":"Baicheng","bookurDataId":"","wikiDataId":"59647654811c3f826c497b57","wikiDataType":"page","source":"wikivoyage","countryCode":"CN","population":"316970","lat":"45.616667","lon":"122.816667","loc":{"continent":"Asia","country":"China","countryCode":"CN","state":"Jilin","city":"","locality":"Baicheng","colloquial_area":"","neighborhood":""}},{"bookurData":"Baoding","wikiData":"Baoding","bookurDataId":"","wikiDataId":"5964765c811c3f826c497cab","wikiDataType":"page","source":"wikivoyage","countryCode":"CN","population":"995652","lat":"38.851111","lon":"115.490278","loc":{"continent":"Asia","country":"China","countryCode":"CN","state":"Hebei","city":"","locality":"Baoding","colloquial_area":"","neighborhood":""}},{"bookurData":"Baoji","wikiData":"Baoji","bookurDataId":"","wikiDataId":"5964765c811c3f826c497cad","wikiDataType":"page","source":"wikivoyage","countryCode":"CN","population":"438295","lat":"34.365907","lon":"107.359045","loc":{"continent":"Asia","country":"China","countryCode":"CN","state":"Shaanxi","city":"","locality":"Baoji","colloquial_area":"","neighborhood":""}},{"bookurData":"Bengbu","wikiData":"Bengbu","bookurDataId":"","wikiDataId":"59647665811c3f826c497ee6","wikiDataType":"page","source":"wikivoyage","countryCode":"CN","population":"576648","lat":"32.940833","lon":"117.360833","loc":{"continent":"Asia","country":"China","countryCode":"CN","state":"Anhui","city":"","locality":"Bengbu","colloquial_area":"","neighborhood":""}},{"bookurData":"Benxi","wikiData":"Benxi","bookurDataId":"","wikiDataId":"59647666811c3f826c497f15","wikiDataType":"page","source":"wikivoyage","countryCode":"CN","population":"987717","lat":"41.288611","lon":"123.765","loc":{"continent":"Asia","country":"China","countryCode":"CN","state":"Liaoning","city":"","locality":"Benxi","colloquial_area":"","neighborhood":""}},{"bookurData":"Cangzhou","wikiData":"Cangzhou","bookurDataId":"","wikiDataId":"5964785f811c3f826c4a02ea","wikiDataType":"page","source":"wikivoyage","countryCode":"CN","population":"527681","lat":"38.316667","lon":"116.866667","loc":{"continent":"Asia","country":"China","countryCode":"CN","state":"Hebei","city":"","locality":"Cangzhou","colloquial_area":"","neighborhood":""}},{"bookurData":"Changchun","wikiData":"Changchun","bookurDataId":"","wikiDataId":"59647692811c3f826c498a41","wikiDataType":"page","source":"wikivoyage","countryCode":"CN","population":"2537421","lat":"43.88","lon":"125.322778","loc":{"continent":"Asia","country":"China","countryCode":"CN","state":"Jilin","city":"","locality":"Changchun","colloquial_area":"","neighborhood":""}},{"bookurData":"Changde","wikiData":"Changde","bookurDataId":"","wikiDataId":"59647692811c3f826c498a42","wikiDataType":"page","source":"wikivoyage","countryCode":"CN","population":"517780","lat":"29.046378","lon":"111.678304","loc":{"continent":"Asia","country":"China","countryCode":"CN","state":"Hunan","city":"","locality":"Changde","colloquial_area":"","neighborhood":""}},{"bookurData":"Changzhou","wikiData":"Changzhou","bookurDataId":"","wikiDataId":"59647692811c3f826c498a4b","wikiDataType":"page","source":"wikivoyage","countryCode":"CN","population":"949018","lat":"31.783333","lon":"119.966667","loc":{"continent":"Asia","country":"China","countryCode":"CN","state":"Jiangsu","city":"","locality":"Changzhou","colloquial_area":"","neighborhood":"Guanhe East Road Shangquan"}},{"bookurData":"Chaoyang","wikiData":"Chaoyang","bookurDataId":"","wikiDataId":"59647693811c3f826c498a62","wikiDataType":"page","source":"wikivoyage","countryCode":"CN","population":"410005","lat":"41.570278","lon":"120.458611","loc":{"continent":"Asia","country":"China","countryCode":"CN","state":"Liaoning","city":"","locality":"Chaoyang","colloquial_area":"","neighborhood":""}},{"bookurData":"Chaozhou","wikiData":"Chaozhou","bookurDataId":"","wikiDataId":"59647693811c3f826c498a63","wikiDataType":"page","source":"wikivoyage","countryCode":"CN","population":"424787","lat":"23.665129","lon":"116.637864","loc":{"continent":"Asia","country":"China","countryCode":"CN","state":"Guangdong","city":"","locality":"Chaozhou","colloquial_area":"","neighborhood":""}},{"bookurData":"Chengde","wikiData":"Chengde","bookurDataId":"","wikiDataId":"59647695811c3f826c498aec","wikiDataType":"page","source":"wikivoyage","countryCode":"CN","population":"449325","lat":"40.770278","lon":"118.169722","loc":{"continent":"Asia","country":"China","countryCode":"CN","state":"Hebei","city":"","locality":"Chengde","colloquial_area":"","neighborhood":""}},{"bookurData":"Chengdu","wikiData":"Chengdu","bookurDataId":"","wikiDataId":"59647695811c3f826c498aed","wikiDataType":"page","source":"wikivoyage","countryCode":"CN","population":"3950437","lat":"30.666667","lon":"104.066667","loc":{"continent":"Asia","country":"China","countryCode":"CN","state":"Sichuan","city":"","locality":"Chengdu","colloquial_area":"","neighborhood":"Luomashi"}},{"bookurData":"Chifeng","wikiData":"Chifeng","bookurDataId":"","wikiDataId":"59647699811c3f826c498bfc","wikiDataType":"page","source":"wikivoyage","countryCode":"CN","population":"346654","lat":"42.268333","lon":"118.963611","loc":{"continent":"Asia","country":"China","countryCode":"CN","state":"Inner Mongolia","city":"","locality":"Chifeng","colloquial_area":"","neighborhood":""}},{"bookurData":"Chongqing","wikiData":"Chongqing","bookurDataId":"","wikiDataId":"5964769d811c3f826c498c9d","wikiDataType":"page","source":"wikivoyage","countryCode":"CN","population":"3967028","lat":"29.562778","lon":"106.552778","loc":{"continent":"Asia","country":"China","countryCode":"CN","state":"Chongqing","city":"","locality":"Chongqing","colloquial_area":"","neighborhood":"Daxigou"}},{"bookurData":"Dalian","wikiData":"Dalian","bookurDataId":"","wikiDataId":"596476af811c3f826c499150","wikiDataType":"page","source":"wikivoyage","countryCode":"CN","population":"2035307","lat":"38.912222","lon":"121.602222","loc":{"continent":"Asia","country":"China","countryCode":"CN","state":"Liaoning","city":"","locality":"Dalian","colloquial_area":"","neighborhood":""}},{"bookurData":"Dandong","wikiData":"Dandong","bookurDataId":"","wikiDataId":"596476b0811c3f826c49918f","wikiDataType":"page","source":"wikivoyage","countryCode":"CN","population":"631973","lat":"40.129167","lon":"124.394722","loc":{"continent":"Asia","country":"China","countryCode":"CN","state":"Liaoning","city":"","locality":"Dandong","colloquial_area":"","neighborhood":""}},{"bookurData":"Datong","wikiData":"Datong","bookurDataId":"","wikiDataId":"596476b1811c3f826c4991e0","wikiDataType":"page","source":"wikivoyage","countryCode":"CN","population":"1052678","lat":"40.093611","lon":"113.291389","loc":{"continent":"Asia","country":"China","countryCode":"CN","state":"Shanxi","city":"","locality":"Datong","colloquial_area":"","neighborhood":""}},{"bookurData":"Dezhou","wikiData":"Dezhou","bookurDataId":"","wikiDataId":"59647882811c3f826c4a1706","wikiDataType":"page","source":"wikivoyage","countryCode":"CN","population":"379555","lat":"37.448611","lon":"116.2925","loc":{"continent":"Asia","country":"China","countryCode":"CN","state":"Shandong","city":"","locality":"Dezhou","colloquial_area":"","neighborhood":""}},{"bookurData":"Dongying","wikiData":"Dongying","bookurDataId":"","wikiDataId":"596476c0811c3f826c4994e3","wikiDataType":"page","source":"wikivoyage","countryCode":"CN","population":"306450","lat":"37.456389","lon":"118.485556","loc":{"continent":"Asia","country":"China","countryCode":"CN","state":"Shandong","city":"","locality":"Dongying","colloquial_area":"","neighborhood":""}},{"bookurData":"Foshan","wikiData":"Foshan","bookurDataId":"","wikiDataId":"596476d8811c3f826c499bbf","wikiDataType":"page","source":"wikivoyage","countryCode":"CN","population":"627348","lat":"23.026771","lon":"113.131483","loc":{"continent":"Asia","country":"China","countryCode":"CN","state":"Guangdong","city":"","locality":"Foshan","colloquial_area":"","neighborhood":""}},{"bookurData":"Fushun","wikiData":"Fushun","bookurDataId":"","wikiDataId":"596476dc811c3f826c499cf8","wikiDataType":"page","source":"wikivoyage","countryCode":"CN","population":"1400646","lat":"41.7","lon":"123.883333","loc":{"continent":"Asia","country":"China","countryCode":"CN","state":"Liaoning","city":"","locality":"Fushun","colloquial_area":"","neighborhood":""}},{"bookurData":"Fuxin","wikiData":"Fuxin","bookurDataId":"","wikiDataId":"596476dc811c3f826c499d03","wikiDataType":"page","source":"wikivoyage","countryCode":"CN","population":"689050","lat":"42.015556","lon":"121.658889","loc":{"continent":"Asia","country":"China","countryCode":"CN","state":"Liaoning","city":"","locality":"Fuxin","colloquial_area":"","neighborhood":""}},{"bookurData":"Fuzhou","wikiData":"Fuzhou","bookurDataId":"","wikiDataId":"596476dc811c3f826c499d04","wikiDataType":"page","source":"wikivoyage","countryCode":"CN","population":"1179720","lat":"26.061389","lon":"119.306111","loc":{"continent":"Asia","country":"China","countryCode":"CN","state":"Fujian","city":"","locality":"Fuzhou","colloquial_area":"","neighborhood":"Taijiang Shangquan"}},{"bookurData":"Guangzhou","wikiData":"Guangzhou","bookurDataId":"","wikiDataId":"596476eb811c3f826c49a18f","wikiDataType":"page","source":"wikivoyage","countryCode":"CN","population":"3152825","lat":"23.116667","lon":"113.25","loc":{"continent":"Asia","country":"China","countryCode":"CN","state":"Guangdong","city":"","locality":"Guangzhou Shi","colloquial_area":"","neighborhood":"ChangDi Lu GouWu XiuXian Jie"}},{"bookurData":"Guilin","wikiData":"Guilin","bookurDataId":"","wikiDataId":"596476ec811c3f826c49a1cc","wikiDataType":"page","source":"wikivoyage","countryCode":"CN","population":"649352","lat":"25.281944","lon":"110.286389","loc":{"continent":"Asia","country":"China","countryCode":"CN","state":"Guangxi","city":"","locality":"Guilin Shi","colloquial_area":"","neighborhood":""}},{"bookurData":"Guiyang","wikiData":"Guiyang","bookurDataId":"","wikiDataId":"596476ec811c3f826c49a1da","wikiDataType":"page","source":"wikivoyage","countryCode":"CN","population":"1171633","lat":"26.583333","lon":"106.716667","loc":{"continent":"Asia","country":"China","countryCode":"CN","state":"Guizhou","city":"","locality":"Guiyang","colloquial_area":"","neighborhood":""}},{"bookurData":"Haikou","wikiData":"Haikou","bookurDataId":"","wikiDataId":"596476ef811c3f826c49a299","wikiDataType":"page","source":"wikivoyage","countryCode":"CN","population":"615835","lat":"20.045833","lon":"110.341667","loc":{"continent":"Asia","country":"China","countryCode":"CN","state":"Hainan","city":"","locality":"Haikou","colloquial_area":"","neighborhood":""}},{"bookurData":"Handan","wikiData":"Handan","bookurDataId":"","wikiDataId":"596476f0811c3f826c49a32a","wikiDataType":"page","source":"wikivoyage","countryCode":"CN","population":"1358318","lat":"36.566667","lon":"114.533333","loc":{"continent":"Asia","country":"China","countryCode":"CN","state":"Hebei","city":"","locality":"Handan","colloquial_area":"","neighborhood":""}},{"bookurData":"Hangzhou","wikiData":"Hangzhou","bookurDataId":"","wikiDataId":"596476f1811c3f826c49a331","wikiDataType":"page","source":"wikivoyage","countryCode":"CN","population":"1878129","lat":"30.29365","lon":"120.161419","loc":{"continent":"Asia","country":"China","countryCode":"CN","state":"Zhejiang Sheng","city":"","locality":"Hangzhou Shi","colloquial_area":"","neighborhood":""}},{"bookurData":"Harbin","wikiData":"Harbin","bookurDataId":"","wikiDataId":"596476f1811c3f826c49a35c","wikiDataType":"page","source":"wikivoyage","countryCode":"CN","population":"3229883","lat":"45.75","lon":"126.65","loc":{"continent":"Asia","country":"China","countryCode":"CN","state":"Heilongjiang","city":"","locality":"Harbin","colloquial_area":"","neighborhood":""}},{"bookurData":"Hefei","wikiData":"Hefei","bookurDataId":"","wikiDataId":"596476f4811c3f826c49a486","wikiDataType":"page","source":"wikivoyage","countryCode":"CN","population":"1388904","lat":"31.863889","lon":"117.280833","loc":{"continent":"Asia","country":"China","countryCode":"CN","state":"Anhui","city":"","locality":"Hefei","colloquial_area":"","neighborhood":""}},{"bookurData":"Hegang","wikiData":"Hegang","bookurDataId":"","wikiDataId":"5965fda610456ad969304318","wikiDataType":"page","source":"wikipedia","countryCode":"CN","population":"743307","lat":"47.4","lon":"130.366667","loc":{"continent":"Asia","country":"China","countryCode":"CN","state":"Heilongjiang","city":"","locality":"Hegang","colloquial_area":"","neighborhood":""}},{"bookurData":"Hengshui","wikiData":"Hengshui","bookurDataId":"","wikiDataId":"596476f5811c3f826c49a4ce","wikiDataType":"page","source":"wikivoyage","countryCode":"CN","population":"456356","lat":"37.732222","lon":"115.701111","loc":{"continent":"Asia","country":"China","countryCode":"CN","state":"Hebei","city":"","locality":"Hengshui","colloquial_area":"","neighborhood":""}},{"bookurData":"Hengyang","wikiData":"Hengyang","bookurDataId":"","wikiDataId":"596476f5811c3f826c49a4d0","wikiDataType":"page","source":"wikivoyage","countryCode":"CN","population":"759602","lat":"26.888056","lon":"112.615","loc":{"continent":"Asia","country":"China","countryCode":"CN","state":"Hunan","city":"","locality":"Hengyang","colloquial_area":"","neighborhood":""}},{"bookurData":"Hohhot","wikiData":"Hohhot","bookurDataId":"","wikiDataId":"596476f9811c3f826c49a5dc","wikiDataType":"page","source":"wikivoyage","countryCode":"CN","population":"774477","lat":"40.810556","lon":"111.652222","loc":{"continent":"Asia","country":"China","countryCode":"CN","state":"Inner Mongolia","city":"","locality":"Hohhot","colloquial_area":"","neighborhood":""}},{"bookurData":"Huaibei","wikiData":"Huaibei","bookurDataId":"","wikiDataId":"5966027c10456ad96931eedd","wikiDataType":"page","source":"wikipedia","countryCode":"CN","population":"903039","lat":"33.974444","lon":"116.791667","loc":{"continent":"Asia","country":"China","countryCode":"CN","state":"Anhui","city":"","locality":"Huaibei","colloquial_area":"","neighborhood":""}},{"bookurData":"Huainan","wikiData":"Huainan","bookurDataId":"","wikiDataId":"5966028b10456ad96931f3b4","wikiDataType":"page","source":"wikipedia","countryCode":"CN","population":"1027655","lat":"32.626389","lon":"116.996944","loc":{"continent":"Asia","country":"China","countryCode":"CN","state":"Anhui","city":"","locality":"Huainan","colloquial_area":"","neighborhood":""}},{"bookurData":"Huaiyin","wikiData":"Huaiyin","bookurDataId":"","wikiDataId":"5966082c10456ad969344931","wikiDataType":"page","source":"wikipedia","countryCode":"CN","population":"555230","lat":"33.588611","lon":"119.019167","loc":{"continent":"Asia","country":"China","countryCode":"CN","state":"Jiangsu","city":"","locality":"Huai'an","colloquial_area":"","neighborhood":""}},{"bookurData":"Jiamusi","wikiData":"Jiamusi","bookurDataId":"","wikiDataId":"59647713811c3f826c49ab39","wikiDataType":"page","source":"wikivoyage","countryCode":"CN","population":"549549","lat":"46.833333","lon":"130.35","loc":{"continent":"Asia","country":"China","countryCode":"CN","state":"Heilongjiang","city":"","locality":"Jiamusi","colloquial_area":"","neighborhood":""}},{"bookurData":"Jiangmen","wikiData":"Jiangmen","bookurDataId":"","wikiDataId":"59647713811c3f826c49ab3a","wikiDataType":"page","source":"wikivoyage","countryCode":"CN","population":"532419","lat":"22.583333","lon":"113.083333","loc":{"continent":"Asia","country":"China","countryCode":"CN","state":"Guangdong","city":"","locality":"Jiangmen","colloquial_area":"","neighborhood":""}},{"bookurData":"Jiaojiang","wikiData":"Jiaojiang District","bookurDataId":"","wikiDataId":"5966453710456ad96952768b","wikiDataType":"page","source":"wikipedia","countryCode":"CN","population":"470804","lat":"28.680278","lon":"121.442778","loc":{"continent":"Asia","country":"China","countryCode":"CN","state":"Zhejiang","city":"","locality":"Taizhou","colloquial_area":"","neighborhood":""}},{"bookurData":"Jiaozuo","wikiData":"Jiaozuo","bookurDataId":"","wikiDataId":"596602d210456ad96932093b","wikiDataType":"page","source":"wikipedia","countryCode":"CN","population":"517540","lat":"35.239722","lon":"113.233056","loc":{"continent":"Asia","country":"China","countryCode":"CN","state":"Henan","city":"","locality":"Jiaozuo","colloquial_area":"","neighborhood":""}},{"bookurData":"Jiaxing","wikiData":"Jiaxing","bookurDataId":"","wikiDataId":"59647713811c3f826c49ab44","wikiDataType":"page","source":"wikivoyage","countryCode":"CN","population":"466101","lat":"30.752198","lon":"120.749997","loc":{"continent":"Asia","country":"China","countryCode":"CN","state":"Zhejiang","city":"","locality":"Jiaxing","colloquial_area":"","neighborhood":""}},{"bookurData":"Jilin","wikiData":"Jilin","bookurDataId":"","wikiDataId":"59647713811c3f826c49ab4e","wikiDataType":"page","source":"wikivoyage","countryCode":"CN","population":"1881977","lat":"43.850833","lon":"126.560278","loc":{"continent":"Asia","country":"China","countryCode":"CN","state":"Jilin","city":"","locality":"Jilin","colloquial_area":"","neighborhood":""}},{"bookurData":"Jinan","wikiData":"Jinan","bookurDataId":"","wikiDataId":"59647713811c3f826c49ab58","wikiDataType":"page","source":"wikivoyage","countryCode":"CN","population":"2069266","lat":"36.668333","lon":"116.997222","loc":{"continent":"Asia","country":"China","countryCode":"CN","state":"Shandong","city":"","locality":"Jinan","colloquial_area":"","neighborhood":""}},{"bookurData":"Jingdezhen","wikiData":"Jingdezhen","bookurDataId":"","wikiDataId":"59647713811c3f826c49ab5e","wikiDataType":"page","source":"wikivoyage","countryCode":"CN","population":"310565","lat":"29.2947","lon":"117.207887","loc":{"continent":"Asia","country":"China","countryCode":"CN","state":"Jiangxi","city":"","locality":"Jingdezhen","colloquial_area":"","neighborhood":""}},{"bookurData":"Jining","wikiData":"Jining","bookurDataId":"","wikiDataId":"5965ffb310456ad96930f1fc","wikiDataType":"page","source":"wikipedia","countryCode":"CN","population":"450327","lat":"35.405","lon":"116.581389","loc":{"continent":"Asia","country":"China","countryCode":"CN","state":"Shandong","city":"","locality":"Jining","colloquial_area":"","neighborhood":""}},{"bookurData":"Jinxi","wikiData":"Jinxi","bookurDataId":"","wikiDataId":"59663fc310456ad9694fa04d","wikiDataType":"page","source":"wikipedia","countryCode":"CN","population":"313247","lat":"40.764317","lon":"120.85327","loc":{"continent":"Asia","country":"China","countryCode":"CN","state":"Liaoning","city":"","locality":"Huludao","colloquial_area":"","neighborhood":""}},{"bookurData":"Jinzhou","wikiData":"Jinzhou","bookurDataId":"","wikiDataId":"59647713811c3f826c49ab70","wikiDataType":"page","source":"wikivoyage","countryCode":"CN","population":"604269","lat":"41.107778","lon":"121.141667","loc":{"continent":"Asia","country":"China","countryCode":"CN","state":"Liaoning","city":"","locality":"Jinzhou","colloquial_area":"","neighborhood":""}},{"bookurData":"Jixi","wikiData":"Jixi","bookurDataId":"","wikiDataId":"59647714811c3f826c49ab82","wikiDataType":"page","source":"wikivoyage","countryCode":"CN","population":"403759","lat":"45.3","lon":"130.966667","loc":{"continent":"Asia","country":"China","countryCode":"CN","state":"Heilongjiang","city":"","locality":"Jixi","colloquial_area":"","neighborhood":""}},{"bookurData":"Kaifeng","wikiData":"Kaifeng","bookurDataId":"","wikiDataId":"59647716811c3f826c49ac52","wikiDataType":"page","source":"wikivoyage","countryCode":"CN","population":"576915","lat":"34.744167","lon":"114.418611","loc":{"continent":"Asia","country":"China","countryCode":"CN","state":"Henan","city":"","locality":"Kaifeng","colloquial_area":"","neighborhood":""}},{"bookurData":"Kunming","wikiData":"Kunming","bookurDataId":"","wikiDataId":"5964772e811c3f826c49b2a6","wikiDataType":"page","source":"wikivoyage","countryCode":"CN","population":"1023674","lat":"25.038889","lon":"102.718333","loc":{"continent":"Asia","country":"China","countryCode":"CN","state":"Yunnan","city":"","locality":"Kunming","colloquial_area":"","neighborhood":""}},{"bookurData":"Langfang","wikiData":"Langfang","bookurDataId":"","wikiDataId":"5965fb6b10456ad9692f8f7b","wikiDataType":"page","source":"wikipedia","countryCode":"CN","population":"720119","lat":"39.509722","lon":"116.694722","loc":{"continent":"Asia","country":"China","countryCode":"CN","state":"Hebei","city":"","locality":"Langfang","colloquial_area":"","neighborhood":""}},{"bookurData":"Lanzhou","wikiData":"Lanzhou","bookurDataId":"","wikiDataId":"59647734811c3f826c49b4ba","wikiDataType":"page","source":"wikivoyage","countryCode":"CN","population":"1417742","lat":"36.056389","lon":"103.792222","loc":{"continent":"Asia","country":"China","countryCode":"CN","state":"Gansu","city":"","locality":"Lanzhou","colloquial_area":"","neighborhood":""}},{"bookurData":"Liaoyang","wikiData":"Liaoyang","bookurDataId":"","wikiDataId":"5964773b811c3f826c49b693","wikiDataType":"page","source":"wikivoyage","countryCode":"CN","population":"687890","lat":"41.226111","lon":"123.056111","loc":{"continent":"Asia","country":"China","countryCode":"CN","state":"Liaoning","city":"","locality":"Liaoyang","colloquial_area":"","neighborhood":""}},{"bookurData":"Liuzhou","wikiData":"Liuzhou","bookurDataId":"","wikiDataId":"5964773e811c3f826c49b78d","wikiDataType":"page","source":"wikivoyage","countryCode":"CN","population":"763168","lat":"24.312582","lon":"109.389157","loc":{"continent":"Asia","country":"China","countryCode":"CN","state":"Guangxi","city":"","locality":"Liuzhou Shi","colloquial_area":"","neighborhood":""}},{"bookurData":"Luancheng","wikiData":"Luancheng District","bookurDataId":"","wikiDataId":"596613ca10456ad96939924b","wikiDataType":"page","source":"wikipedia","countryCode":"CN","population":"597130","lat":"37.879167","lon":"114.651667","loc":{"continent":"Asia","country":"China","countryCode":"CN","state":"Hebei","city":"","locality":"Shijiazhuang","colloquial_area":"","neighborhood":""}},{"bookurData":"Luohe","wikiData":"Luohe","bookurDataId":"","wikiDataId":"5965fd6310456ad969302c97","wikiDataType":"page","source":"wikipedia","countryCode":"CN","population":"417356","lat":"33.571667","lon":"114.035278","loc":{"continent":"Asia","country":"China","countryCode":"CN","state":"Henan","city":"","locality":"Luohe","colloquial_area":"","neighborhood":""}},{"bookurData":"Luoyang","wikiData":"Luoyang","bookurDataId":"","wikiDataId":"59647746811c3f826c49b9cb","wikiDataType":"page","source":"wikivoyage","countryCode":"CN","population":"1390581","lat":"34.683611","lon":"112.453611","loc":{"continent":"Asia","country":"China","countryCode":"CN","state":"Henan","city":"","locality":"Luoyang","colloquial_area":"","neighborhood":""}},{"bookurData":"Luqiao","wikiData":"Luqiao District","bookurDataId":"","wikiDataId":"5966453710456ad9695276af","wikiDataType":"page","source":"wikipedia","countryCode":"CN","population":"427890","lat":"28.580835","lon":"121.377148","loc":{"continent":"Asia","country":"China","countryCode":"CN","state":"Zhejiang","city":"","locality":"Taizhou","colloquial_area":"","neighborhood":""}},{"bookurData":"Maanshan","wikiData":"Ma'anshan","bookurDataId":"","wikiDataId":"596478a8811c3f826c4a2d79","wikiDataType":"page","source":"wikivoyage","countryCode":"CN","population":"540198","lat":"31.695678","lon":"118.498248","loc":{"continent":"Asia","country":"China","countryCode":"CN","state":"Anhui","city":"","locality":"Ma'anshan","colloquial_area":"","neighborhood":""}},{"bookurData":"Maoming","wikiData":"Maoming","bookurDataId":"","wikiDataId":"59647752811c3f826c49bc53","wikiDataType":"page","source":"wikivoyage","countryCode":"CN","population":"473251","lat":"21.65","lon":"110.9","loc":{"continent":"Asia","country":"China","countryCode":"CN","state":"Guangdong","city":"","locality":"Maoming","colloquial_area":"","neighborhood":""}},{"bookurData":"Mudanjiang","wikiData":"Mudanjiang","bookurDataId":"","wikiDataId":"5964776c811c3f826c49c3a8","wikiDataType":"page","source":"wikivoyage","countryCode":"CN","population":"665915","lat":"44.583333","lon":"129.6","loc":{"continent":"Asia","country":"China","countryCode":"CN","state":"Heilongjiang","city":"","locality":"Mudanjiang","colloquial_area":"","neighborhood":""}},{"bookurData":"Nanchang","wikiData":"Nanchang","bookurDataId":"","wikiDataId":"59647773811c3f826c49c52e","wikiDataType":"page","source":"wikivoyage","countryCode":"CN","population":"1871351","lat":"28.55","lon":"115.933333","loc":{"continent":"Asia","country":"China","countryCode":"CN","state":"Jiangxi","city":"","locality":"Nanchang","colloquial_area":"","neighborhood":""}},{"bookurData":"Nanjing","wikiData":"Nanjing","bookurDataId":"","wikiDataId":"59647774811c3f826c49c53a","wikiDataType":"page","source":"wikivoyage","countryCode":"CN","population":"3087010","lat":"32.061667","lon":"118.777778","loc":{"continent":"Asia","country":"China","countryCode":"CN","state":"Jiangsu","city":"","locality":"Nanjing","colloquial_area":"","neighborhood":""}},{"bookurData":"Nanning","wikiData":"Nanning","bookurDataId":"","wikiDataId":"59647774811c3f826c49c53d","wikiDataType":"page","source":"wikivoyage","countryCode":"CN","population":"803788","lat":"22.816667","lon":"108.316667","loc":{"continent":"Asia","country":"China","countryCode":"CN","state":"Guangxi","city":"","locality":"Nanning","colloquial_area":"","neighborhood":""}},{"bookurData":"Nantong","wikiData":"Nantong","bookurDataId":"","wikiDataId":"59647774811c3f826c49c547","wikiDataType":"page","source":"wikivoyage","countryCode":"CN","population":"666251","lat":"32.030278","lon":"120.874722","loc":{"continent":"Asia","country":"China","countryCode":"CN","state":"Jiangsu","city":"","locality":"Nantong","colloquial_area":"","neighborhood":""}},{"bookurData":"Neijiang","wikiData":"Neijiang","bookurDataId":"","wikiDataId":"5966089410456ad969347c49","wikiDataType":"page","source":"wikipedia","countryCode":"CN","population":"546854","lat":"29.583536","lon":"105.06216","loc":{"continent":"Asia","country":"China","countryCode":"CN","state":"Sichuan","city":"","locality":"Neijiang","colloquial_area":"","neighborhood":""}},{"bookurData":"Ningbo","wikiData":"Ningbo","bookurDataId":"","wikiDataId":"59647781811c3f826c49c7fd","wikiDataType":"page","source":"wikivoyage","countryCode":"CN","population":"719867","lat":"29.878186","lon":"121.549453","loc":{"continent":"Asia","country":"China","countryCode":"CN","state":"Zhejiang","city":"","locality":"Ningbo","colloquial_area":"","neighborhood":""}},{"bookurData":"Panzhihua","wikiData":"Panzhihua","bookurDataId":"","wikiDataId":"59647884811c3f826c4a180b","wikiDataType":"page","source":"wikivoyage","countryCode":"CN","population":"461513","lat":"26.547902","lon":"101.705386","loc":{"continent":"Asia","country":"China","countryCode":"CN","state":"Sichuan","city":"","locality":"Panzhihua","colloquial_area":"","neighborhood":""}},{"bookurData":"Peking","wikiData":"Beijing","bookurDataId":"","wikiDataId":"59647662811c3f826c497e32","wikiDataType":"page","source":"wikivoyage","countryCode":"CN","population":"7480601","lat":"39.928889","lon":"116.388333","loc":{"continent":"Asia","country":"China","countryCode":"CN","state":"Beijing Shi","city":"","locality":"Beijing","colloquial_area":"","neighborhood":""}},{"bookurData":"Pingdingshan","wikiData":"Pingdingshan","bookurDataId":"","wikiDataId":"596477a7811c3f826c49d289","wikiDataType":"page","source":"wikivoyage","countryCode":"CN","population":"889675","lat":"33.738472","lon":"113.301194","loc":{"continent":"Asia","country":"China","countryCode":"CN","state":"Henan","city":"","locality":"Pingdingshan","colloquial_area":"","neighborhood":""}},{"bookurData":"Pingxiang","wikiData":"Pingxiang","bookurDataId":"","wikiDataId":"59660ddd10456ad96936d3c4","wikiDataType":"page","source":"wikipedia","countryCode":"CN","population":"372123","lat":"27.616667","lon":"113.85","loc":{"continent":"Asia","country":"China","countryCode":"CN","state":"Jiangxi","city":"","locality":"Pingxiang","colloquial_area":"","neighborhood":""}},{"bookurData":"Puyang","wikiData":"Puyang","bookurDataId":"","wikiDataId":"59660a3b10456ad969353af8","wikiDataType":"page","source":"wikipedia","countryCode":"CN","population":"666322","lat":"35.702778","lon":"115.005278","loc":{"continent":"Asia","country":"China","countryCode":"CN","state":"Henan","city":"","locality":"Puyang","colloquial_area":"","neighborhood":""}},{"bookurData":"Qingdao","wikiData":"Qingdao","bookurDataId":"","wikiDataId":"596477b6811c3f826c49d6bb","wikiDataType":"page","source":"wikivoyage","countryCode":"CN","population":"1642245","lat":"36.098611","lon":"120.371944","loc":{"continent":"Asia","country":"China","countryCode":"CN","state":"Shandong","city":"","locality":"Qingdao","colloquial_area":"","neighborhood":""}},{"bookurData":"Qinhuangdao","wikiData":"Qinhuangdao","bookurDataId":"","wikiDataId":"596477b7811c3f826c49d6c3","wikiDataType":"page","source":"wikivoyage","countryCode":"CN","population":"759718","lat":"39.931667","lon":"119.588333","loc":{"continent":"Asia","country":"China","countryCode":"CN","state":"Hebei","city":"","locality":"Qinhuangdao","colloquial_area":"","neighborhood":""}},{"bookurData":"Qiqihar","wikiData":"Qiqihar","bookurDataId":"","wikiDataId":"596477b7811c3f826c49d6c5","wikiDataType":"page","source":"wikivoyage","countryCode":"CN","population":"882364","lat":"47.340833","lon":"123.967222","loc":{"continent":"Asia","country":"China","countryCode":"CN","state":"Heilongjiang","city":"","locality":"Qiqihar","colloquial_area":"","neighborhood":""}},{"bookurData":"Qitaihe","wikiData":"Qitaihe","bookurDataId":"","wikiDataId":"5966031e10456ad96932260d","wikiDataType":"page","source":"wikipedia","countryCode":"CN","population":"345033","lat":"45.8","lon":"130.85","loc":{"continent":"Asia","country":"China","countryCode":"CN","state":"Heilongjiang","city":"","locality":"Qitaihe","colloquial_area":"","neighborhood":""}},{"bookurData":"Sanmenxia","wikiData":"Sanmenxia","bookurDataId":"","wikiDataId":"596477d5811c3f826c49def7","wikiDataType":"page","source":"wikivoyage","countryCode":"CN","population":"357767","lat":"34.774722","lon":"111.181389","loc":{"continent":"Asia","country":"China","countryCode":"CN","state":"Henan","city":"","locality":"Sanmenxia","colloquial_area":"","neighborhood":""}},{"bookurData":"Shanghai","wikiData":"Shanghai","bookurDataId":"","wikiDataId":"596477e4811c3f826c49e2c2","wikiDataType":"page","source":"wikivoyage","countryCode":"CN","population":"14608512","lat":"31.045556","lon":"121.399722","loc":{"continent":"Asia","country":"China","countryCode":"CN","state":"Shanghai","city":"","locality":"Shanghai","colloquial_area":"","neighborhood":""}},{"bookurData":"Shangrao","wikiData":"Shangrao","bookurDataId":"","wikiDataId":"5965f2e410456ad9692ce3e7","wikiDataType":"page","source":"wikipedia","countryCode":"CN","population":"318769","lat":"28.453221","lon":"117.968604","loc":{"continent":"Asia","country":"China","countryCode":"CN","state":"Jiangxi","city":"","locality":"Shangrao","colloquial_area":"","neighborhood":""}},{"bookurData":"Shaoguan","wikiData":"Shaoguan","bookurDataId":"","wikiDataId":"596477e5811c3f826c49e2e9","wikiDataType":"page","source":"wikivoyage","countryCode":"CN","population":"628749","lat":"24.8","lon":"113.583333","loc":{"continent":"Asia","country":"China","countryCode":"CN","state":"Guangdong","city":"","locality":"Shaoguan","colloquial_area":"","neighborhood":""}},{"bookurData":"Shaoxing","wikiData":"Shaoxing","bookurDataId":"","wikiDataId":"596477e5811c3f826c49e2ea","wikiDataType":"page","source":"wikivoyage","countryCode":"CN","population":"421283","lat":"30.011019","lon":"120.571528","loc":{"continent":"Asia","country":"China","countryCode":"CN","state":"Zhejiang","city":"","locality":"Shaoxing","colloquial_area":"","neighborhood":""}},{"bookurData":"Shaoyang","wikiData":"Shaoyang","bookurDataId":"","wikiDataId":"5966032f10456ad9693230fb","wikiDataType":"page","source":"wikipedia","countryCode":"CN","population":"649452","lat":"26.965893","lon":"111.241376","loc":{"continent":"Asia","country":"China","countryCode":"CN","state":"Hunan","city":"","locality":"Shaoyang","colloquial_area":"","neighborhood":""}},{"bookurData":"Shenyang","wikiData":"Shenyang","bookurDataId":"","wikiDataId":"596477e6811c3f826c49e33b","wikiDataType":"page","source":"wikivoyage","countryCode":"CN","population":"3512192","lat":"41.792222","lon":"123.432778","loc":{"continent":"Asia","country":"China","countryCode":"CN","state":"Liaoning","city":"","locality":"Shenyang","colloquial_area":"","neighborhood":"Jinlang Shangquan"}},{"bookurData":"Shenzhen","wikiData":"Shenzhen","bookurDataId":"","wikiDataId":"596477e6811c3f826c49e33c","wikiDataType":"page","source":"wikivoyage","countryCode":"CN","population":"1002592","lat":"22.533333","lon":"114.133333","loc":{"continent":"Asia","country":"Hong Kong","countryCode":"HK","state":"New Territories","city":"North District","locality":"Shenzhen","colloquial_area":"","neighborhood":"Closed Area"}},{"bookurData":"Shihezi","wikiData":"Shihezi","bookurDataId":"","wikiDataId":"596477e6811c3f826c49e36d","wikiDataType":"page","source":"wikivoyage","countryCode":"CN","population":"572772","lat":"44.3","lon":"86.033333","loc":{"continent":"Asia","country":"China","countryCode":"CN","state":"Xinjiang","city":"","locality":"","colloquial_area":"","neighborhood":""}},{"bookurData":"Shiyan","wikiData":"Shiyan","bookurDataId":"","wikiDataId":"596477e7811c3f826c49e3b7","wikiDataType":"page","source":"wikivoyage","countryCode":"CN","population":"408055","lat":"32.6475","lon":"110.778056","loc":{"continent":"Asia","country":"China","countryCode":"CN","state":"Hubei","city":"","locality":"Shiyan","colloquial_area":"","neighborhood":""}},{"bookurData":"Suzhou","wikiData":"Suzhou","bookurDataId":"","wikiDataId":"59647802811c3f826c49eb67","wikiDataType":"page","source":"wikivoyage","countryCode":"CN","population":"1343091","lat":"31.311389","lon":"120.618056","loc":{"continent":"Asia","country":"China","countryCode":"CN","state":"Jiangsu","city":"","locality":"Suzhou","colloquial_area":"","neighborhood":""}},{"bookurData":"Taiyuan","wikiData":"Taiyuan","bookurDataId":"","wikiDataId":"59647809811c3f826c49ecaf","wikiDataType":"page","source":"wikivoyage","countryCode":"CN","population":"2722475","lat":"37.726944","lon":"112.470833","loc":{"continent":"Asia","country":"China","countryCode":"CN","state":"Shanxi","city":"","locality":"Taiyuan","colloquial_area":"","neighborhood":""}},{"bookurData":"Taizhou","wikiData":"Taizhou","bookurDataId":"","wikiDataId":"59660c4c10456ad969361b4d","wikiDataType":"page","source":"wikipedia","countryCode":"CN","population":"612356","lat":"32.493333","lon":"119.910627","loc":{"continent":"Asia","country":"China","countryCode":"CN","state":"Jiangsu","city":"","locality":"Taizhou","colloquial_area":"","neighborhood":""}},{"bookurData":"Tanggu","wikiData":"Tanggu District","bookurDataId":"","wikiDataId":"5966180910456ad9693b9dbd","wikiDataType":"page","source":"wikipedia","countryCode":"CN","population":"535298","lat":"39.021111","lon":"117.646944","loc":{"continent":"Asia","country":"China","countryCode":"CN","state":"Tianjin","city":"","locality":"Tianjin","colloquial_area":"","neighborhood":""}},{"bookurData":"Tangshan","wikiData":"Tangshan","bookurDataId":"","wikiDataId":"5964780b811c3f826c49ed2c","wikiDataType":"page","source":"wikivoyage","countryCode":"CN","population":"2054526","lat":"37.3325","lon":"114.701389","loc":{"continent":"Asia","country":"China","countryCode":"CN","state":"Hebei","city":"","locality":"Xingtai","colloquial_area":"","neighborhood":""}},{"bookurData":"Tianjin","wikiData":"Tianjin","bookurDataId":"","wikiDataId":"59647813811c3f826c49ef98","wikiDataType":"page","source":"wikivoyage","countryCode":"CN","population":"3766207","lat":"39.142222","lon":"117.176667","loc":{"continent":"Asia","country":"China","countryCode":"CN","state":"Tianjin","city":"","locality":"Tianjin","colloquial_area":"","neighborhood":""}},{"bookurData":"Tieling","wikiData":"Tieling","bookurDataId":"","wikiDataId":"59647813811c3f826c49efab","wikiDataType":"page","source":"wikivoyage","countryCode":"CN","population":"333907","lat":"42.293056","lon":"123.841389","loc":{"continent":"Asia","country":"China","countryCode":"CN","state":"Liaoning","city":"","locality":"Tieling","colloquial_area":"","neighborhood":""}},{"bookurData":"Tongling","wikiData":"Tongling","bookurDataId":"","wikiDataId":"5965cd6210456ad9692494e6","wikiDataType":"page","source":"wikipedia","countryCode":"CN","population":"312588","lat":"30.933333","lon":"117.816667","loc":{"continent":"Asia","country":"China","countryCode":"CN","state":"Anhui","city":"","locality":"Tongling","colloquial_area":"","neighborhood":""}},{"bookurData":"Urumqi","wikiData":"Urumqi","bookurDataId":"","wikiDataId":"5964782c811c3f826c49f493","wikiDataType":"page","source":"wikivoyage","countryCode":"CN","population":"1508225","lat":"43.800965","lon":"87.600459","loc":{"continent":"Asia","country":"China","countryCode":"CN","state":"Xinjiang","city":"","locality":"Urumqi","colloquial_area":"","neighborhood":""}},{"bookurData":"Weifang","wikiData":"Weifang","bookurDataId":"","wikiDataId":"5964783e811c3f826c49f953","wikiDataType":"page","source":"wikivoyage","countryCode":"CN","population":"394732","lat":"36.71","lon":"119.101944","loc":{"continent":"Asia","country":"China","countryCode":"CN","state":"Shandong","city":"","locality":"Weifang","colloquial_area":"","neighborhood":""}},{"bookurData":"Wenzhou","wikiData":"Wenzhou","bookurDataId":"","wikiDataId":"5964783f811c3f826c49f98a","wikiDataType":"page","source":"wikivoyage","countryCode":"CN","population":"865672","lat":"27.999416","lon":"120.66682","loc":{"continent":"Asia","country":"China","countryCode":"CN","state":"Zhejiang","city":"","locality":"Wenzhou","colloquial_area":"","neighborhood":""}},{"bookurData":"Wuhan","wikiData":"Wuhan","bookurDataId":"","wikiDataId":"59647848811c3f826c49fc71","wikiDataType":"page","source":"wikivoyage","countryCode":"CN","population":"4184206","lat":"30.580125","lon":"114.273405","loc":{"continent":"Asia","country":"China","countryCode":"CN","state":"Hubei","city":"","locality":"Wuhan","colloquial_area":"","neighborhood":"Jianghan Road Shangquan"}},{"bookurData":"Wuhu","wikiData":"Wuhu","bookurDataId":"","wikiDataId":"59647848811c3f826c49fc72","wikiDataType":"page","source":"wikivoyage","countryCode":"CN","population":"507524","lat":"31.14607","lon":"118.57069","loc":{"continent":"Asia","country":"China","countryCode":"CN","state":"Anhui","city":"","locality":"Wuhu","colloquial_area":"","neighborhood":""}},{"bookurData":"Wuxi","wikiData":"Wuxi","bookurDataId":"","wikiDataId":"59647848811c3f826c49fc81","wikiDataType":"page","source":"wikivoyage","countryCode":"CN","population":"1108647","lat":"31.568873","lon":"120.288573","loc":{"continent":"Asia","country":"China","countryCode":"CN","state":"Jiangsu","city":"","locality":"Wuxi","colloquial_area":"","neighborhood":""}},{"bookurData":"Xiamen","wikiData":"Xiamen","bookurDataId":"","wikiDataId":"59647849811c3f826c49fcb5","wikiDataType":"page","source":"wikivoyage","countryCode":"CN","population":"578337","lat":"24.479794","lon":"118.081869","loc":{"continent":"Asia","country":"China","countryCode":"CN","state":"Fujian","city":"","locality":"Xiamen","colloquial_area":"","neighborhood":""}},{"bookurData":"Xiangfan","wikiData":"Xiangfan","bookurDataId":"","wikiDataId":"59647849811c3f826c49fcbb","wikiDataType":"page","source":"wikivoyage","countryCode":"CN","population":"462956","lat":"32.042203","lon":"112.144794","loc":{"continent":"Asia","country":"China","countryCode":"CN","state":"Hubei","city":"","locality":"Xiangyang","colloquial_area":"","neighborhood":""}},{"bookurData":"Xian","wikiData":"Xi'an","bookurDataId":"","wikiDataId":"59647849811c3f826c49fcb7","wikiDataType":"page","source":"wikivoyage","countryCode":"CN","population":"3953191","lat":"34.258333","lon":"108.928611","loc":{"continent":"Asia","country":"China","countryCode":"CN","state":"Shaanxi","city":"","locality":"Xi'an","colloquial_area":"","neighborhood":"Zhonglou Shangquan"}},{"bookurData":"Xianyang","wikiData":"Xianyang","bookurDataId":"","wikiDataId":"59647849811c3f826c49fcbd","wikiDataType":"page","source":"wikivoyage","countryCode":"CN","population":"1034081","lat":"34.33778","lon":"108.70261","loc":{"continent":"Asia","country":"China","countryCode":"CN","state":"Shaanxi","city":"","locality":"Xianyang","colloquial_area":"","neighborhood":""}},{"bookurData":"Xingtai","wikiData":"Xingtai","bookurDataId":"","wikiDataId":"59660a3b10456ad969353ab2","wikiDataType":"page","source":"wikipedia","countryCode":"CN","population":"611739","lat":"37.063056","lon":"114.494167","loc":{"continent":"Asia","country":"China","countryCode":"CN","state":"Hebei","city":"","locality":"Xingtai","colloquial_area":"","neighborhood":""}},{"bookurData":"Xining","wikiData":"Xining","bookurDataId":"","wikiDataId":"59647849811c3f826c49fcd0","wikiDataType":"page","source":"wikivoyage","countryCode":"CN","population":"767531","lat":"36.616667","lon":"101.766667","loc":{"continent":"Asia","country":"China","countryCode":"CN","state":"Qinghai","city":"","locality":"Xining","colloquial_area":"","neighborhood":""}},